{"class":"VERSION","release":"3.16","rev":"3.16-4","proto_major":3,"proto_minor":11}
{"class":"DEVICES","devices":[{"class":"DEVICE","path":"/dev/ttyAMA0","activated":"2018-10-01T06:24:01.359Z","native":0,"bps":9600,"parity":"N","stopbits":1,"cycle":1.00}]}
{"class":"WATCH","enable":true,"json":true,"nmea":false,"raw":0,"scaled":false,"timing":false,"split24":false,"pps":false}
{"class":"DEVICE","path":"/dev/ttyAMA0","driver":"NMEA0183","activated":"2018-10-01T06:24:02.093Z","native":0,"bps":9600,"parity":"N","stopbits":1,"cycle":1.00}
{"class":"TPV","device":"/dev/ttyAMA0","mode":1}
{"class":"TPV","device":"/dev/ttyAMA0","mode":1}
{"class":"SKY","device":"/dev/ttyAMA0","vdop":1.00,"hdop":2.60,"pdop":2.78,"satellites":[{"PRN":2,"el":57,"az":146,"ss":30,"used":false},{"PRN":5,"el":66,"az":20,"ss":34,"used":false},{"PRN":30,"el":30,"az":76,"ss":28,"used":false},{"PRN":129,"el":45,"az":159,"ss":29,"used":false},{"PRN":137,"el":44,"az":152,"ss":30,"used":false}]}
{"class":"SKY","device":"/dev/ttyAMA0","vdop":1.00,"hdop":2.60,"pdop":2.78,"satellites":[{"PRN":2,"el":57,"az":146,"ss":30,"used":false},{"PRN":5,"el":66,"az":20,"ss":34,"used":false},{"PRN":30,"el":30,"az":76,"ss":28,"used":false},{"PRN":129,"el":45,"az":159,"ss":29,"used":false},{"PRN":137,"el":44,"az":152,"ss":30,"used":false},{"PRN":87,"el":0,"az":0,"ss":32,"used":false},{"PRN":37,"el":0,"az":0,"ss":25,"used":true},{"PRN":37,"el":0,"az":0,"ss":25,"used":true}]}
{"class":"DEVICE","path":"/dev/ttyAMA0","driver":"u-blox","activated":"2018-10-01T06:24:02.659Z","flags":1,"native":1,"bps":9600,"parity":"N","stopbits":1,"cycle":1.00,"mincycle":0.25}
{"class":"TPV","device":"/dev/ttyAMA0","mode":2,"time":"2018-10-01T06:24:04.000Z","ept":0.005,"lat":36.622516174,"lon":127.348675680,"track":309.2486,"speed":0.059,"eps":0.70}
{"class":"TPV","device":"/dev/ttyAMA0","mode":2,"time":"2018-10-01T06:24:05.000Z","ept":0.005,"lat":36.622516354,"lon":127.348676569,"track":96.4821,"speed":0.022,"eps":0.74}
{"class":"TPV","device":"/dev/ttyAMA0","mode":2,"time":"2018-10-01T06:24:06.000Z","ept":0.005,"lat":36.622516448,"lon":127.348678638,"track":95.3647,"speed":0.145,"eps":1.35}
{"class":"TPV","device":"/dev/ttyAMA0","mode":3,"time":"2018-10-01T06:24:07.000Z","ept":0.005,"lat":36.622500913,"lon":127.347774443,"alt":47.945,"epv":23.000,"track":54.3831,"speed":0.019,"climb":0.086,"eps":1.34}
{"class":"TPV","device":"/dev/ttyAMA0","mode":3,"time":"2018-10-01T06:24:08.000Z","ept":0.005,"lat":36.622492986,"lon":127.347751968,"alt":47.636,"epv":63.710,"track":20.5809,"speed":0.016,"climb":0.064,"eps":1.03,"epc":86.71}
{"class":"TPV","device":"/dev/ttyAMA0","mode":3,"time":"2018-10-01T06:24:09.000Z","ept":0.005,"lat":36.622496450,"lon":127.347765112,"alt":47.974,"epv":63.710,"track":52.6847,"speed":0.065,"climb":0.047,"eps":0.82,"epc":127.42}
{"class":"TPV","device":"/dev/ttyAMA0","mode":3,"time":"2018-10-01T06:24:10.000Z","ept":0.005,"lat":36.622498370,"lon":127.347770862,"alt":48.073,"epv":63.710,"track":45.5051,"speed":0.031,"climb":0.021,"eps":0.74,"epc":127.42}
{"class":"TPV","device":"/dev/ttyAMA0","mode":3,"time":"2018-10-01T06:24:11.000Z","ept":0.005,"lat":36.622498525,"lon":127.347766356,"alt":48.251,"epv":63.710,"track":233.1963,"speed":0.105,"climb":-0.033,"eps":0.75,"epc":127.42}
{"class":"TPV","device":"/dev/ttyAMA0","mode":3,"time":"2018-10-01T06:24:12.000Z","ept":0.005,"lat":36.622497735,"lon":127.347763966,"alt":48.453,"epv":63.710,"track":217.6337,"speed":0.184,"climb":-0.089,"eps":0.72,"epc":127.42}
{"class":"TPV","device":"/dev/ttyAMA0","mode":3,"time":"2018-10-01T06:24:13.000Z","ept":0.005,"lat":36.622496533,"lon":127.347764139,"alt":48.431,"epv":63.710,"track":214.8038,"speed":0.133,"climb":-0.122,"eps":0.69,"epc":127.42}
{"class":"TPV","device":"/dev/ttyAMA0","mode":3,"time":"2018-10-01T06:24:14.000Z","ept":0.005,"lat":36.622496030,"lon":127.347761627,"alt":48.489,"epv":63.710,"track":150.7072,"speed":0.042,"climb":-0.102,"eps":0.60,"epc":127.42}
{"class":"TPV","device":"/dev/ttyAMA0","mode":3,"time":"2018-10-01T06:24:15.000Z","ept":0.005,"lat":36.622495892,"lon":127.347762441,"alt":48.359,"epv":63.710,"track":5.1588,"speed":0.051,"climb":-0.052,"eps":0.57,"epc":127.42}
{"class":"TPV","device":"/dev/ttyAMA0","mode":3,"time":"2018-10-01T06:24:16.000Z","ept":0.005,"lat":36.622494764,"lon":127.347763229,"alt":48.192,"epv":63.710,"track":68.7487,"speed":0.076,"climb":-0.054,"eps":0.69,"epc":127.42}
{"class":"TPV","device":"/dev/ttyAMA0","mode":3,"time":"2018-10-01T06:24:17.000Z","ept":0.005,"lat":36.622492590,"lon":127.347765346,"alt":48.114,"epv":63.710,"track":186.8328,"speed":0.016,"climb":-0.029,"eps":0.61,"epc":127.42}
{"class":"TPV","device":"/dev/ttyAMA0","mode":3,"time":"2018-10-01T06:24:18.000Z","ept":0.005,"lat":36.622492021,"lon":127.347767137,"alt":48.032,"epv":63.710,"track":118.4247,"speed":0.014,"climb":-0.025,"eps":0.58,"epc":127.42}
{"class":"TPV","device":"/dev/ttyAMA0","mode":3,"time":"2018-10-01T06:24:19.000Z","ept":0.005,"lat":36.622490255,"lon":127.347769202,"alt":48.077,"epv":63.710,"track":298.4247,"speed":0.007,"climb":0.012,"eps":0.56,"epc":127.42}
{"class":"TPV","device":"/dev/ttyAMA0","mode":3,"time":"2018-10-01T06:24:20.000Z","ept":0.005,"lat":36.622487639,"lon":127.347769242,"alt":47.630,"epv":63.710,"track":186.4195,"speed":0.037,"climb":-0.000,"eps":0.61,"epc":127.42}
{"class":"TPV","device":"/dev/ttyAMA0","mode":3,"time":"2018-10-01T06:24:21.000Z","ept":0.005,"lat":36.622483854,"lon":127.347762518,"alt":46.636,"epv":63.710,"track":221.1682,"speed":0.149,"climb":-0.067,"eps":0.70,"epc":127.42}
{"class":"TPV","device":"/dev/ttyAMA0","mode":3,"time":"2018-10-01T06:24:22.000Z","ept":0.005,"lat":36.622480890,"lon":127.347758743,"alt":46.039,"epv":63.710,"track":206.6933,"speed":0.187,"climb":-0.110,"eps":0.68,"epc":127.42}
{"class":"TPV","device":"/dev/ttyAMA0","mode":3,"time":"2018-10-01T06:24:23.000Z","ept":0.005,"lat":36.622478133,"lon":127.347750972,"alt":45.982,"epv":63.710,"track":237.8374,"speed":0.493,"climb":0.035,"eps":1.16,"epc":127.42}
{"class":"TPV","device":"/dev/ttyAMA0","mode":3,"time":"2018-10-01T06:24:24.000Z","ept":0.005,"lat":36.622477444,"lon":127.347748787,"alt":45.833,"epv":63.710,"track":244.1249,"speed":0.080,"climb":0.030,"eps":1.19,"epc":127.42}
{"class":"TPV","device":"/dev/ttyAMA0","mode":3,"time":"2018-10-01T06:24:25.000Z","ept":0.005,"lat":36.622475948,"lon":127.347751395,"alt":45.822,"epv":63.710,"track":15.8773,"speed":0.051,"climb":0.034,"eps":0.68,"epc":127.42}
{"class":"TPV","device":"/dev/ttyAMA0","mode":3,"time":"2018-10-01T06:24:26.000Z","ept":0.005,"lat":36.622476575,"lon":127.347752737,"alt":45.862,"epv":63.710,"track":32.5954,"speed":0.030,"climb":0.034,"eps":0.68,"epc":127.42}
{"class":"TPV","device":"/dev/ttyAMA0","mode":3,"time":"2018-10-01T06:24:27.000Z","ept":0.005,"lat":36.622478902,"lon":127.347760895,"alt":46.403,"epv":63.710,"track":3.3925,"speed":0.064,"climb":0.082,"eps":0.62,"epc":127.42}
{"class":"TPV","device":"/dev/ttyAMA0","mode":3,"time":"2018-10-01T06:24:28.000Z","ept":0.005,"lat":36.622481789,"lon":127.347769770,"alt":46.659,"epv":63.710,"track":180.0000,"speed":0.016,"climb":-0.012,"eps":0.65,"epc":127.42}
{"class":"TPV","device":"/dev/ttyAMA0","mode":3,"time":"2018-10-01T06:24:29.000Z","ept":0.005,"lat":36.622484742,"lon":127.347767001,"alt":46.855,"epv":63.710,"track":214.1239,"speed":0.096,"climb":-0.094,"eps":0.62,"epc":127.42}
{"class":"TPV","device":"/dev/ttyAMA0","mode":3,"time":"2018-10-01T06:24:30.000Z","ept":0.005,"lat":36.622483920,"lon":127.347761924,"alt":46.810,"epv":63.710,"track":195.5938,"speed":0.089,"climb":-0.086,"eps":0.62,"epc":127.42}
{"class":"TPV","device":"/dev/ttyAMA0","mode":3,"time":"2018-10-01T06:24:31.000Z","ept":0.005,"lat":36.622484547,"lon":127.347760095,"alt":46.801,"epv":63.710,"track":58.9706,"speed":0.040,"climb":-0.061,"eps":0.58,"epc":127.42}
{"class":"TPV","device":"/dev/ttyAMA0","mode":3,"time":"2018-10-01T06:24:32.000Z","ept":0.005,"lat":36.622486047,"lon":127.347759639,"alt":46.744,"epv":63.710,"track":347.3073,"speed":0.017,"climb":-0.022,"eps":0.46,"epc":127.42}
{"class":"TPV","device":"/dev/ttyAMA0","mode":3,"time":"2018-10-01T06:24:33.000Z","ept":0.005,"lat":36.622486336,"lon":127.347759814,"alt":46.517,"epv":63.710,"track":251.6248,"speed":0.032,"climb":-0.020,"eps":0.64,"epc":127.42}
{"class":"TPV","device":"/dev/ttyAMA0","mode":3,"time":"2018-10-01T06:24:34.000Z","ept":0.005,"lat":36.622488728,"lon":127.347760902,"alt":46.227,"epv":63.710,"track":217.7574,"speed":0.066,"climb":-0.014,"eps":0.70,"epc":127.42}
{"class":"TPV","device":"/dev/ttyAMA0","mode":3,"time":"2018-10-01T06:24:35.000Z","ept":0.005,"lat":36.622487583,"lon":127.347762134,"alt":46.096,"epv":63.940,"track":261.1587,"speed":0.051,"climb":-0.006,"eps":0.64,"epc":127.65}
{"class":"TPV","device":"/dev/ttyAMA0","mode":3,"time":"2018-10-01T06:24:36.000Z","ept":0.005,"lat":36.622487896,"lon":127.347763458,"alt":45.764,"epv":63.940,"track":69.2523,"speed":0.040,"climb":0.031,"eps":0.62,"epc":127.88}
{"class":"TPV","device":"/dev/ttyAMA0","mode":3,"time":"2018-10-01T06:24:37.000Z","ept":0.005,"lat":36.622487828,"lon":127.347761297,"alt":45.355,"epv":63.940,"track":56.8651,"speed":0.033,"climb":0.009,"eps":0.67,"epc":127.88}
{"class":"TPV","device":"/dev/ttyAMA0","mode":3,"time":"2018-10-01T06:24:38.000Z","ept":0.005,"lat":36.622487550,"lon":127.347755999,"alt":44.710,"epv":63.940,"track":240.9981,"speed":0.045,"climb":-0.054,"eps":0.65,"epc":127.88}
{"class":"TPV","device":"/dev/ttyAMA0","mode":3,"time":"2018-10-01T06:24:39.000Z","ept":0.005,"lat":36.622485038,"lon":127.347756048,"alt":44.146,"epv":63.940,"track":199.0486,"speed":0.103,"climb":-0.120,"eps":0.65,"epc":127.88}
{"class":"TPV","device":"/dev/ttyAMA0","mode":3,"time":"2018-10-01T06:24:40.000Z","ept":0.005,"lat":36.622484343,"lon":127.347752084,"alt":43.579,"epv":63.940,"track":94.3224,"speed":0.091,"climb":-0.091,"eps":0.61,"epc":127.88}
{"class":"TPV","device":"/dev/ttyAMA0","mode":3,"time":"2018-10-01T06:24:41.000Z","ept":0.005,"lat":36.622483131,"lon":127.347762176,"alt":45.168,"epv":63.940,"track":66.9605,"speed":0.131,"climb":-0.035,"eps":0.69,"epc":127.88}
{"class":"TPV","device":"/dev/ttyAMA0","mode":3,"time":"2018-10-01T06:24:42.000Z","ept":0.005,"lat":36.622481396,"lon":127.347775467,"alt":46.986,"epv":63.940,"track":255.8447,"speed":0.108,"climb":0.069,"eps":0.58,"epc":127.88}
{"class":"TPV","device":"/dev/ttyAMA0","mode":3,"time":"2018-10-01T06:24:43.000Z","ept":0.005,"lat":36.622481299,"lon":127.347770916,"alt":46.246,"epv":63.940,"track":249.2423,"speed":0.047,"climb":0.039,"eps":0.57,"epc":127.88}
{"class":"TPV","device":"/dev/ttyAMA0","mode":3,"time":"2018-10-01T06:24:44.000Z","ept":0.005,"lat":36.622480688,"lon":127.347771873,"alt":46.857,"epv":63.940,"track":296.2185,"speed":0.016,"climb":0.007,"eps":0.53,"epc":127.88}
{"class":"TPV","device":"/dev/ttyAMA0","mode":3,"time":"2018-10-01T06:24:45.000Z","ept":0.005,"lat":36.622480898,"lon":127.347767338,"alt":46.222,"epv":63.940,"track":118.4247,"speed":0.007,"climb":-0.012,"eps":0.58,"epc":127.88}
{"class":"TPV","device":"/dev/ttyAMA0","mode":3,"time":"2018-10-01T06:24:46.000Z","ept":0.005,"lat":36.622480336,"lon":127.347760242,"alt":45.384,"epv":63.940,"track":266.6281,"speed":0.046,"climb":-0.030,"eps":0.55,"epc":127.88}
{"class":"TPV","device":"/dev/ttyAMA0","mode":3,"time":"2018-10-01T06:24:47.000Z","ept":0.005,"lat":36.622481080,"lon":127.347760413,"alt":45.256,"epv":63.940,"track":25.4138,"speed":0.057,"climb":-0.002,"eps":0.63,"epc":127.88}
{"class":"TPV","device":"/dev/ttyAMA0","mode":3,"time":"2018-10-01T06:24:48.000Z","ept":0.005,"lat":36.622479632,"lon":127.347758020,"alt":45.137,"epv":63.940,"track":234.5080,"speed":0.147,"climb":-0.052,"eps":0.69,"epc":127.88}
{"class":"TPV","device":"/dev/ttyAMA0","mode":3,"time":"2018-10-01T06:24:49.000Z","ept":0.005,"lat":36.622479972,"lon":127.347758804,"alt":45.154,"epv":63.940,"track":227.2216,"speed":0.133,"climb":-0.113,"eps":0.66,"epc":127.88}
{"class":"TPV","device":"/dev/ttyAMA0","mode":3,"time":"2018-10-01T06:24:50.000Z","ept":0.005,"lat":36.622479816,"lon":127.347757253,"alt":45.244,"epv":63.940,"track":225.7638,"speed":0.192,"climb":-0.121,"eps":0.68,"epc":127.88}
{"class":"TPV","device":"/dev/ttyAMA0","mode":3,"time":"2018-10-01T06:24:51.000Z","ept":0.005,"lat":36.622479695,"lon":127.347756229,"alt":45.178,"epv":63.940,"track":234.3830,"speed":0.019,"climb":-0.086,"eps":0.57,"epc":127.88}
{"class":"TPV","device":"/dev/ttyAMA0","mode":3,"time":"2018-10-01T06:24:52.000Z","ept":0.005,"lat":36.622479854,"lon":127.347757583,"alt":45.322,"epv":63.940,"track":41.9526,"speed":0.073,"climb":-0.039,"eps":0.68,"epc":127.88}
{"class":"TPV","device":"/dev/ttyAMA0","mode":3,"time":"2018-10-01T06:24:53.000Z","ept":0.005,"lat":36.622479994,"lon":127.347758383,"alt":45.402,"epv":63.940,"track":14.6973,"speed":0.057,"climb":-0.024,"eps":0.61,"epc":127.88}
{"class":"SKY","device":"/dev/ttyAMA0","xdop":1.31,"ydop":1.62,"vdop":2.78,"tdop":2.19,"hdop":2.08,"gdop":4.11,"pdop":3.47,"satellites":[{"PRN":2,"el":56,"az":146,"ss":32,"used":true},{"PRN":5,"el":66,"az":21,"ss":38,"used":true},{"PRN":7,"el":-91,"az":0,"ss":22,"used":false},{"PRN":30,"el":30,"az":75,"ss":27,"used":true},{"PRN":129,"el":45,"az":159,"ss":29,"used":false},{"PRN":137,"el":44,"az":152,"ss":30,"used":true},{"PRN":80,"el":18,"az":66,"ss":19,"used":false},{"PRN":87,"el":21,"az":330,"ss":31,"used":true},{"PRN":255,"el":-91,"az":0,"ss":20,"used":false}]}
{"class":"TPV","device":"/dev/ttyAMA0","mode":3,"time":"2018-10-01T06:24:54.000Z","ept":0.005,"lat":36.622479596,"lon":127.347757274,"alt":45.243,"epx":19.634,"epy":24.246,"epv":63.940,"track":353.4444,"speed":0.033,"climb":-0.011,"eps":0.53,"epc":127.88}
{"class":"TPV","device":"/dev/ttyAMA0","mode":3,"time":"2018-10-01T06:24:55.000Z","ept":0.005,"lat":36.622479247,"lon":127.347755873,"alt":45.111,"epx":19.634,"epy":24.246,"epv":63.940,"track":283.2025,"speed":0.137,"climb":-0.025,"eps":1.09,"epc":127.88}
{"class":"TPV","device":"/dev/ttyAMA0","mode":3,"time":"2018-10-01T06:24:56.000Z","ept":0.005,"lat":36.622479223,"lon":127.347754681,"alt":44.914,"epx":19.634,"epy":24.246,"epv":63.940,"track":213.8495,"speed":0.036,"climb":-0.010,"eps":0.72,"epc":127.88}
{"class":"TPV","device":"/dev/ttyAMA0","mode":3,"time":"2018-10-01T06:24:57.000Z","ept":0.005,"lat":36.622479097,"lon":127.347753095,"alt":44.580,"epx":19.634,"epy":24.246,"epv":63.940,"track":295.2988,"speed":0.033,"climb":-0.002,"eps":0.48,"epc":127.88}
{"class":"TPV","device":"/dev/ttyAMA0","mode":3,"time":"2018-10-01T06:24:58.000Z","ept":0.005,"lat":36.622479150,"lon":127.347751278,"alt":44.070,"epx":19.634,"epy":24.246,"epv":63.940,"track":214.7830,"speed":0.088,"climb":-0.054,"eps":0.68,"epc":127.88}
{"class":"TPV","device":"/dev/ttyAMA0","mode":3,"time":"2018-10-01T06:24:59.000Z","ept":0.005,"lat":36.622478726,"lon":127.347750436,"alt":43.932,"epx":19.634,"epy":24.246,"epv":63.940,"track":234.3453,"speed":0.123,"climb":-0.054,"eps":0.71,"epc":127.88}
{"class":"TPV","device":"/dev/ttyAMA0","mode":3,"time":"2018-10-01T06:25:00.000Z","ept":0.005,"lat":36.622478150,"lon":127.347749416,"alt":43.766,"epx":19.634,"epy":24.246,"epv":63.940,"track":49.5004,"speed":0.047,"climb":0.026,"eps":0.69,"epc":127.88}
{"class":"TPV","device":"/dev/ttyAMA0","mode":3,"time":"2018-10-01T06:25:01.000Z","ept":0.005,"lat":36.622478119,"lon":127.347748364,"alt":43.486,"epx":19.634,"epy":24.246,"epv":63.940,"track":38.5569,"speed":0.148,"climb":0.079,"eps":0.91,"epc":127.88}
{"class":"TPV","device":"/dev/ttyAMA0","mode":3,"time":"2018-10-01T06:25:02.000Z","ept":0.005,"lat":36.622477823,"lon":127.347746869,"alt":43.413,"epx":19.634,"epy":24.246,"epv":63.940,"track":16.4243,"speed":0.061,"climb":0.139,"eps":0.60,"epc":127.88}
{"class":"TPV","device":"/dev/ttyAMA0","mode":3,"time":"2018-10-01T06:25:03.000Z","ept":0.005,"lat":36.622477857,"lon":127.347746046,"alt":43.659,"epx":19.634,"epy":24.246,"epv":63.940,"track":277.4519,"speed":0.074,"climb":0.188,"eps":0.93,"epc":127.88}
{"class":"SKY","device":"/dev/ttyAMA0","xdop":1.31,"ydop":1.62,"vdop":2.78,"tdop":2.19,"hdop":2.08,"gdop":4.11,"pdop":3.47,"satellites":[{"PRN":2,"el":56,"az":146,"ss":31,"used":true},{"PRN":5,"el":66,"az":21,"ss":36,"used":true},{"PRN":7,"el":-91,"az":0,"ss":18,"used":false},{"PRN":30,"el":30,"az":75,"ss":23,"used":true},{"PRN":129,"el":45,"az":159,"ss":29,"used":false},{"PRN":137,"el":44,"az":152,"ss":30,"used":true},{"PRN":80,"el":18,"az":66,"ss":18,"used":false},{"PRN":87,"el":21,"az":330,"ss":31,"used":true},{"PRN":255,"el":-91,"az":0,"ss":20,"used":false}]}
{"class":"TPV","device":"/dev/ttyAMA0","mode":3,"time":"2018-10-01T06:25:04.000Z","ept":0.005,"lat":36.622476761,"lon":127.347741511,"alt":44.108,"epx":19.634,"epy":24.246,"epv":63.940,"track":253.0823,"speed":0.356,"climb":0.273,"eps":1.40,"epc":127.88}
{"class":"TPV","device":"/dev/ttyAMA0","mode":2,"time":"2018-10-01T06:25:05.000Z","ept":0.005,"lat":36.622477053,"lon":127.347748820,"epx":19.634,"epy":24.246,"track":82.6798,"speed":0.079,"eps":1.09}
{"class":"TPV","device":"/dev/ttyAMA0","mode":2,"time":"2018-10-01T06:25:06.000Z","ept":0.005,"lat":36.622477781,"lon":127.347750005,"epx":19.634,"epy":24.246,"track":43.5831,"speed":0.134,"eps":1.18}
{"class":"TPV","device":"/dev/ttyAMA0","mode":2,"time":"2018-10-01T06:25:07.000Z","ept":0.005,"lat":36.622478114,"lon":127.347749799,"epx":19.634,"epy":24.246,"track":55.6137,"speed":0.180,"eps":1.22}
{"class":"TPV","device":"/dev/ttyAMA0","mode":2,"time":"2018-10-01T06:25:08.000Z","ept":0.005,"lat":36.622479865,"lon":127.347751186,"epx":19.634,"epy":24.246,"track":218.2208,"speed":0.094,"eps":1.13}
{"class":"TPV","device":"/dev/ttyAMA0","mode":2,"time":"2018-10-01T06:25:09.000Z","ept":0.005,"lat":36.622481567,"lon":127.347752734,"epx":19.634,"epy":24.246,"track":228.4503,"speed":0.169,"eps":1.15}
{"class":"TPV","device":"/dev/ttyAMA0","mode":3,"time":"2018-10-01T06:25:10.000Z","ept":0.005,"lat":36.622482016,"lon":127.347753485,"alt":43.491,"epx":19.634,"epy":24.246,"epv":23.000,"track":265.4176,"speed":0.014,"climb":0.002,"eps":1.07}
{"class":"TPV","device":"/dev/ttyAMA0","mode":3,"time":"2018-10-01T06:25:11.000Z","ept":0.005,"lat":36.622482096,"lon":127.347753027,"alt":43.646,"epx":19.634,"epy":24.246,"epv":64.170,"track":51.2447,"speed":0.049,"climb":0.043,"eps":0.84,"epc":87.17}
{"class":"TPV","device":"/dev/ttyAMA0","mode":3,"time":"2018-10-01T06:25:12.000Z","ept":0.005,"lat":36.622482535,"lon":127.347752590,"alt":43.849,"epx":19.634,"epy":24.246,"epv":64.170,"track":5.8463,"speed":0.055,"climb":0.093,"eps":0.52,"epc":128.34}
{"class":"TPV","device":"/dev/ttyAMA0","mode":3,"time":"2018-10-01T06:25:13.000Z","ept":0.005,"lat":36.622482608,"lon":127.347751635,"alt":44.056,"epx":19.634,"epy":24.246,"epv":64.170,"track":252.5049,"speed":0.120,"climb":0.099,"eps":1.25,"epc":128.34}
{"class":"SKY","device":"/dev/ttyAMA0","xdop":1.31,"ydop":1.62,"vdop":2.79,"tdop":2.19,"hdop":2.07,"gdop":4.11,"pdop":3.47,"satellites":[{"PRN":2,"el":56,"az":146,"ss":33,"used":true},{"PRN":5,"el":66,"az":21,"ss":38,"used":true},{"PRN":7,"el":-91,"az":0,"ss":18,"used":false},{"PRN":30,"el":30,"az":75,"ss":26,"used":true},{"PRN":129,"el":45,"az":159,"ss":29,"used":false},{"PRN":137,"el":44,"az":152,"ss":30,"used":true},{"PRN":80,"el":18,"az":66,"ss":14,"used":false},{"PRN":87,"el":21,"az":330,"ss":33,"used":true},{"PRN":255,"el":-91,"az":0,"ss":21,"used":false}]}
{"class":"TPV","device":"/dev/ttyAMA0","mode":3,"time":"2018-10-01T06:25:14.000Z","ept":0.005,"lat":36.622482974,"lon":127.347751834,"alt":44.119,"epx":19.634,"epy":24.246,"epv":64.170,"track":257.1912,"speed":0.066,"climb":0.053,"eps":1.20,"epc":128.34}
{"class":"TPV","device":"/dev/ttyAMA0","mode":3,"time":"2018-10-01T06:25:15.000Z","ept":0.005,"lat":36.622482785,"lon":127.347750054,"alt":44.281,"epx":19.634,"epy":24.246,"epv":64.170,"track":254.2037,"speed":0.136,"climb":0.083,"eps":1.30,"epc":128.34}
{"class":"TPV","device":"/dev/ttyAMA0","mode":3,"time":"2018-10-01T06:25:16.000Z","ept":0.005,"lat":36.622482291,"lon":127.347748160,"alt":44.455,"epx":19.634,"epy":24.246,"epv":64.170,"track":252.3231,"speed":0.140,"climb":0.124,"eps":1.15,"epc":128.34}
{"class":"TPV","device":"/dev/ttyAMA0","mode":3,"time":"2018-10-01T06:25:17.000Z","ept":0.005,"lat":36.622483366,"lon":127.347751668,"alt":44.278,"epx":19.634,"epy":24.246,"epv":64.170,"track":48.2933,"speed":0.118,"climb":0.079,"eps":0.70,"epc":128.34}
{"class":"TPV","device":"/dev/ttyAMA0","mode":3,"time":"2018-10-01T06:25:18.000Z","ept":0.005,"lat":36.622484912,"lon":127.347753794,"alt":44.383,"epx":19.634,"epy":24.246,"epv":64.170,"track":221.5739,"speed":0.043,"climb":0.043,"eps":0.64,"epc":128.34}
{"class":"TPV","device":"/dev/ttyAMA0","mode":3,"time":"2018-10-01T06:25:19.000Z","ept":0.005,"lat":36.622486551,"lon":127.347756453,"alt":44.540,"epx":19.634,"epy":24.246,"epv":64.170,"track":212.4696,"speed":0.172,"climb":-0.039,"eps":0.70,"epc":128.34}
{"class":"TPV","device":"/dev/ttyAMA0","mode":3,"time":"2018-10-01T06:25:20.000Z","ept":0.005,"lat":36.622487679,"lon":127.347758376,"alt":44.640,"epx":19.634,"epy":24.246,"epv":64.170,"track":65.7258,"speed":0.027,"climb":-0.031,"eps":0.64,"epc":128.34}
{"class":"TPV","device":"/dev/ttyAMA0","mode":3,"time":"2018-10-01T06:25:21.000Z","ept":0.005,"lat":36.622487140,"lon":127.347758464,"alt":44.603,"epx":19.634,"epy":24.246,"epv":64.170,"track":252.5049,"speed":0.040,"climb":0.033,"eps":0.62,"epc":128.34}
{"class":"TPV","device":"/dev/ttyAMA0","mode":3,"time":"2018-10-01T06:25:22.000Z","ept":0.005,"lat":36.622486980,"lon":127.347758888,"alt":44.610,"epx":19.634,"epy":24.246,"epv":58.650,"track":254.9822,"speed":0.052,"climb":0.052,"eps":0.61,"epc":122.82}
{"class":"TPV","device":"/dev/ttyAMA0","mode":3,"time":"2018-10-01T06:25:23.000Z","ept":0.005,"lat":36.622486998,"lon":127.347759760,"alt":44.608,"epx":19.634,"epy":24.246,"epv":58.650,"track":212.7705,"speed":0.134,"climb":0.035,"eps":0.67,"epc":117.30}
{"class":"SKY","device":"/dev/ttyAMA0","xdop":1.31,"ydop":1.62,"vdop":2.55,"tdop":1.80,"hdop":1.63,"gdop":3.53,"pdop":3.03,"satellites":[{"PRN":2,"el":56,"az":146,"ss":31,"used":true},{"PRN":5,"el":66,"az":22,"ss":38,"used":true},{"PRN":7,"el":-91,"az":0,"ss":26,"used":false},{"PRN":30,"el":30,"az":75,"ss":26,"used":true},{"PRN":129,"el":44,"az":152,"ss":27,"used":false},{"PRN":137,"el":44,"az":152,"ss":28,"used":true},{"PRN":80,"el":18,"az":66,"ss":17,"used":false},{"PRN":86,"el":66,"az":265,"ss":18,"used":false},{"PRN":87,"el":21,"az":330,"ss":32,"used":true},{"PRN":255,"el":-91,"az":0,"ss":22,"used":false}]}
{"class":"TPV","device":"/dev/ttyAMA0","mode":3,"time":"2018-10-01T06:25:24.000Z","ept":0.005,"lat":36.622487009,"lon":127.347761947,"alt":44.371,"epx":19.634,"epy":24.246,"epv":58.650,"track":112.8255,"speed":0.122,"climb":-0.054,"eps":0.84,"epc":117.30}
{"class":"TPV","device":"/dev/ttyAMA0","mode":3,"time":"2018-10-01T06:25:25.000Z","ept":0.005,"lat":36.622487922,"lon":127.347763310,"alt":44.453,"epx":19.634,"epy":24.246,"epv":58.650,"track":117.4756,"speed":0.036,"climb":-0.045,"eps":0.85,"epc":117.30}
{"class":"TPV","device":"/dev/ttyAMA0","mode":3,"time":"2018-10-01T06:25:26.000Z","ept":0.005,"lat":36.622488106,"lon":127.347763717,"alt":44.409,"epx":19.634,"epy":24.246,"epv":64.170,"track":151.7902,"speed":0.013,"climb":-0.018,"eps":0.64,"epc":122.82}
{"class":"TPV","device":"/dev/ttyAMA0","mode":3,"time":"2018-10-01T06:25:27.000Z","ept":0.005,"lat":36.622487318,"lon":127.347763434,"alt":44.241,"epx":19.634,"epy":24.246,"epv":64.170,"track":34.7830,"speed":0.088,"climb":0.054,"eps":0.82,"epc":128.34}
{"class":"TPV","device":"/dev/ttyAMA0","mode":3,"time":"2018-10-01T06:25:28.000Z","ept":0.005,"lat":36.622487706,"lon":127.347767007,"alt":43.731,"epx":19.634,"epy":24.246,"epv":64.170,"track":98.3253,"speed":0.065,"climb":-0.071,"eps":1.11,"epc":128.34}
{"class":"TPV","device":"/dev/ttyAMA0","mode":3,"time":"2018-10-01T06:25:29.000Z","ept":0.005,"lat":36.622488746,"lon":127.347768354,"alt":43.743,"epx":19.634,"epy":24.246,"epv":58.880,"track":216.6598,"speed":0.230,"climb":-0.221,"eps":0.71,"epc":123.05}
{"class":"TPV","device":"/dev/ttyAMA0","mode":3,"time":"2018-10-01T06:25:30.000Z","ept":0.005,"lat":36.622487877,"lon":127.347769133,"alt":43.722,"epx":19.634,"epy":24.246,"epv":58.880,"track":187.0842,"speed":0.156,"climb":-0.227,"eps":0.58,"epc":117.76}
{"class":"TPV","device":"/dev/ttyAMA0","mode":3,"time":"2018-10-01T06:25:31.000Z","ept":0.005,"lat":36.622488223,"lon":127.347770017,"alt":43.888,"epx":19.634,"epy":24.246,"epv":58.880,"track":51.9846,"speed":0.185,"climb":-0.153,"eps":1.32,"epc":117.76}
{"class":"TPV","device":"/dev/ttyAMA0","mode":3,"time":"2018-10-01T06:25:32.000Z","ept":0.005,"lat":36.622487403,"lon":127.347771535,"alt":43.558,"epx":19.634,"epy":24.246,"epv":58.880,"track":54.3635,"speed":0.240,"climb":-0.071,"eps":1.40,"epc":117.76}
{"class":"TPV","device":"/dev/ttyAMA0","mode":3,"time":"2018-10-01T06:25:33.000Z","ept":0.005,"lat":36.622487627,"lon":127.347773841,"alt":43.240,"epx":19.634,"epy":24.246,"epv":58.880,"track":90.0617,"speed":0.057,"climb":-0.134,"eps":1.06,"epc":117.76}
{"class":"SKY","device":"/dev/ttyAMA0","xdop":1.31,"ydop":1.62,"vdop":2.56,"tdop":1.80,"hdop":1.63,"gdop":3.53,"pdop":3.03,"satellites":[{"PRN":2,"el":56,"az":146,"ss":29,"used":true},{"PRN":5,"el":66,"az":22,"ss":37,"used":true},{"PRN":7,"el":-91,"az":0,"ss":20,"used":false},{"PRN":30,"el":30,"az":75,"ss":20,"used":true},{"PRN":129,"el":44,"az":152,"ss":28,"used":false},{"PRN":137,"el":44,"az":152,"ss":28,"used":true},{"PRN":80,"el":18,"az":66,"ss":23,"used":false},{"PRN":86,"el":66,"az":265,"ss":15,"used":false},{"PRN":87,"el":21,"az":330,"ss":32,"used":true},{"PRN":255,"el":-91,"az":0,"ss":24,"used":false}]}
{"class":"TPV","device":"/dev/ttyAMA0","mode":3,"time":"2018-10-01T06:25:34.000Z","ept":0.005,"lat":36.622489314,"lon":127.347782955,"alt":42.602,"epx":19.634,"epy":24.246,"epv":58.880,"track":93.5278,"speed":0.259,"climb":-0.331,"eps":1.18,"epc":117.76}
{"class":"TPV","device":"/dev/ttyAMA0","mode":3,"time":"2018-10-01T06:25:35.000Z","ept":0.005,"lat":36.622489065,"lon":127.347783263,"alt":42.639,"epx":19.634,"epy":24.246,"epv":58.880,"track":98.5364,"speed":0.097,"climb":-0.249,"eps":0.97,"epc":117.76}
{"class":"TPV","device":"/dev/ttyAMA0","mode":3,"time":"2018-10-01T06:25:36.000Z","ept":0.005,"lat":36.622488557,"lon":127.347778666,"alt":43.084,"epx":19.634,"epy":24.246,"epv":58.880,"track":268.1156,"speed":0.051,"climb":-0.082,"eps":0.56,"epc":117.76}
{"class":"TPV","device":"/dev/ttyAMA0","mode":3,"time":"2018-10-01T06:25:37.000Z","ept":0.005,"lat":36.622489425,"lon":127.347778666,"alt":43.156,"epx":19.634,"epy":24.246,"epv":58.880,"track":342.5805,"speed":0.041,"climb":0.049,"eps":0.64,"epc":117.76}
{"class":"TPV","device":"/dev/ttyAMA0","mode":3,"time":"2018-10-01T06:25:38.000Z","ept":0.005,"lat":36.622491074,"lon":127.347782831,"alt":42.909,"epx":19.634,"epy":24.246,"epv":58.880,"track":203.0222,"speed":0.006,"climb":0.041,"eps":0.75,"epc":117.76}
{"class":"TPV","device":"/dev/ttyAMA0","mode":3,"time":"2018-10-01T06:25:39.000Z","ept":0.005,"lat":36.622492144,"lon":127.347787237,"alt":42.683,"epx":19.634,"epy":24.246,"epv":58.880,"track":208.7217,"speed":0.288,"climb":-0.147,"eps":0.76,"epc":117.76}
{"class":"TPV","device":"/dev/ttyAMA0","mode":3,"time":"2018-10-01T06:25:40.000Z","ept":0.005,"lat":36.622492160,"lon":127.347789842,"alt":42.529,"epx":19.634,"epy":24.246,"epv":58.880,"track":206.2288,"speed":0.415,"climb":-0.388,"eps":0.65,"epc":117.76}
{"class":"TPV","device":"/dev/ttyAMA0","mode":3,"time":"2018-10-01T06:25:41.000Z","ept":0.005,"lat":36.622490476,"lon":127.347788355,"alt":42.546,"epx":19.634,"epy":24.246,"epv":58.880,"track":212.3004,"speed":0.270,"climb":-0.448,"eps":0.60,"epc":117.76}
{"class":"TPV","device":"/dev/ttyAMA0","mode":3,"time":"2018-10-01T06:25:42.000Z","ept":0.005,"lat":36.622488281,"lon":127.347781655,"alt":43.159,"epx":19.634,"epy":24.246,"epv":58.880,"track":219.1879,"speed":0.300,"climb":-0.274,"eps":0.61,"epc":117.76}
{"class":"TPV","device":"/dev/ttyAMA0","mode":3,"time":"2018-10-01T06:25:43.000Z","ept":0.005,"lat":36.622487369,"lon":127.347779557,"alt":43.328,"epx":19.634,"epy":24.246,"epv":58.880,"track":192.6088,"speed":0.144,"climb":-0.197,"eps":0.57,"epc":117.76}
{"class":"TPV","device":"/dev/ttyAMA0","mode":3,"time":"2018-10-01T06:25:44.000Z","ept":0.005,"lat":36.622487147,"lon":127.347777108,"alt":43.462,"epx":19.634,"epy":24.246,"epv":58.880,"track":231.7431,"speed":0.108,"climb":-0.178,"eps":0.55,"epc":117.76}
{"class":"TPV","device":"/dev/ttyAMA0","mode":3,"time":"2018-10-01T06:25:45.000Z","ept":0.005,"lat":36.622485747,"lon":127.347774884,"alt":43.487,"epx":19.634,"epy":24.246,"epv":59.110,"track":225.7209,"speed":0.088,"climb":-0.169,"eps":0.53,"epc":117.99}
{"class":"TPV","device":"/dev/ttyAMA0","mode":3,"time":"2018-10-01T06:25:46.000Z","ept":0.005,"lat":36.622484304,"lon":127.347772372,"alt":43.468,"epx":19.634,"epy":24.246,"epv":59.110,"track":186.2048,"speed":0.087,"climb":-0.152,"eps":0.54,"epc":118.22}
{"class":"TPV","device":"/dev/ttyAMA0","mode":3,"time":"2018-10-01T06:25:47.000Z","ept":0.005,"lat":36.622482596,"lon":127.347770911,"alt":43.438,"epx":19.634,"epy":24.246,"epv":59.110,"track":113.5259,"speed":0.097,"climb":-0.132,"eps":0.53,"epc":118.22}
{"class":"TPV","device":"/dev/ttyAMA0","mode":3,"time":"2018-10-01T06:25:48.000Z","ept":0.005,"lat":36.622481971,"lon":127.347770644,"alt":43.363,"epx":19.634,"epy":24.246,"epv":59.110,"track":81.7311,"speed":0.045,"climb":-0.109,"eps":0.56,"epc":118.22}
{"class":"TPV","device":"/dev/ttyAMA0","mode":3,"time":"2018-10-01T06:25:49.000Z","ept":0.005,"lat":36.622482628,"lon":127.347772950,"alt":43.081,"epx":19.634,"epy":24.246,"epv":59.110,"track":98.0664,"speed":0.210,"climb":-0.279,"eps":0.84,"epc":118.22}
{"class":"TPV","device":"/dev/ttyAMA0","mode":3,"time":"2018-10-01T06:25:50.000Z","ept":0.005,"lat":36.622483127,"lon":127.347772234,"alt":43.124,"epx":19.634,"epy":24.246,"epv":59.110,"track":218.7318,"speed":0.237,"climb":-0.388,"eps":0.55,"epc":118.22}
{"class":"TPV","device":"/dev/ttyAMA0","mode":3,"time":"2018-10-01T06:25:51.000Z","ept":0.005,"lat":36.622482065,"lon":127.347770354,"alt":43.064,"epx":19.634,"epy":24.246,"epv":59.110,"track":207.5451,"speed":0.152,"climb":-0.355,"eps":0.53,"epc":118.22}
{"class":"TPV","device":"/dev/ttyAMA0","mode":3,"time":"2018-10-01T06:25:52.000Z","ept":0.005,"lat":36.622481881,"lon":127.347768630,"alt":43.075,"epx":19.634,"epy":24.246,"epv":59.110,"track":200.2097,"speed":0.136,"climb":-0.265,"eps":0.53,"epc":118.22}
{"class":"TPV","device":"/dev/ttyAMA0","mode":3,"time":"2018-10-01T06:25:53.000Z","ept":0.005,"lat":36.622481712,"lon":127.347768436,"alt":42.966,"epx":19.634,"epy":24.246,"epv":59.110,"track":70.9699,"speed":0.065,"climb":-0.146,"eps":0.51,"epc":118.22}
{"class":"SKY","device":"/dev/ttyAMA0","xdop":1.31,"ydop":1.62,"vdop":2.57,"tdop":1.81,"hdop":1.63,"gdop":3.54,"pdop":3.04,"satellites":[{"PRN":2,"el":56,"az":147,"ss":33,"used":true},{"PRN":5,"el":66,"az":22,"ss":37,"used":true},{"PRN":21,"el":-91,"az":0,"ss":22,"used":false},{"PRN":30,"el":30,"az":75,"ss":32,"used":true},{"PRN":129,"el":44,"az":152,"ss":29,"used":false},{"PRN":137,"el":44,"az":152,"ss":30,"used":true},{"PRN":71,"el":59,"az":335,"ss":24,"used":false},{"PRN":80,"el":18,"az":66,"ss":22,"used":false},{"PRN":86,"el":66,"az":264,"ss":22,"used":false},{"PRN":87,"el":22,"az":329,"ss":32,"used":true}]}
{"class":"TPV","device":"/dev/ttyAMA0","mode":3,"time":"2018-10-01T06:25:54.000Z","ept":0.005,"lat":36.622482387,"lon":127.347769267,"alt":42.983,"epx":19.634,"epy":24.246,"epv":59.110,"track":49.9411,"speed":0.155,"climb":-0.017,"eps":0.59,"epc":118.22}
{"class":"TPV","device":"/dev/ttyAMA0","mode":3,"time":"2018-10-01T06:25:55.000Z","ept":0.005,"lat":36.622480938,"lon":127.347767115,"alt":42.931,"epx":19.634,"epy":24.246,"epv":59.110,"track":47.7987,"speed":0.056,"climb":0.083,"eps":0.55,"epc":118.22}
{"class":"TPV","device":"/dev/ttyAMA0","mode":3,"time":"2018-10-01T06:25:56.000Z","ept":0.005,"lat":36.622480913,"lon":127.347766603,"alt":42.901,"epx":19.634,"epy":24.246,"epv":59.110,"track":44.3330,"speed":0.094,"climb":0.128,"eps":0.60,"epc":118.22}
{"class":"TPV","device":"/dev/ttyAMA0","mode":3,"time":"2018-10-01T06:25:57.000Z","ept":0.005,"lat":36.622481871,"lon":127.347767113,"alt":42.741,"epx":19.634,"epy":24.246,"epv":59.110,"track":29.1064,"speed":0.126,"climb":0.187,"eps":0.55,"epc":118.22}
{"class":"TPV","device":"/dev/ttyAMA0","mode":3,"time":"2018-10-01T06:25:58.000Z","ept":0.005,"lat":36.622481998,"lon":127.347766778,"alt":42.739,"epx":19.634,"epy":24.246,"epv":59.110,"track":29.1064,"speed":0.126,"climb":0.187,"eps":0.55,"epc":118.22}
{"class":"TPV","device":"/dev/ttyAMA0","mode":3,"time":"2018-10-01T06:25:59.000Z","ept":0.005,"lat":36.622482116,"lon":127.347765651,"alt":42.872,"epx":19.634,"epy":24.246,"epv":59.110,"track":221.3786,"speed":0.183,"climb":0.034,"eps":0.65,"epc":118.22}
{"class":"TPV","device":"/dev/ttyAMA0","mode":3,"time":"2018-10-01T06:26:00.000Z","ept":0.005,"lat":36.622481956,"lon":127.347766030,"alt":42.578,"epx":19.634,"epy":24.246,"epv":59.110,"track":144.0011,"speed":0.061,"climb":-0.034,"eps":0.47,"epc":118.22}
{"class":"TPV","device":"/dev/ttyAMA0","mode":3,"time":"2018-10-01T06:26:01.000Z","ept":0.005,"lat":36.622482143,"lon":127.347766953,"alt":42.499,"epx":19.634,"epy":24.246,"epv":59.110,"track":47.1212,"speed":0.099,"climb":-0.007,"eps":1.25,"epc":118.22}
{"class":"TPV","device":"/dev/ttyAMA0","mode":3,"time":"2018-10-01T06:26:02.000Z","ept":0.005,"lat":36.622483069,"lon":127.347768771,"alt":42.495,"epx":19.634,"epy":24.246,"epv":59.110,"track":14.9541,"speed":0.045,"climb":0.075,"eps":0.55,"epc":118.22}
{"class":"TPV","device":"/dev/ttyAMA0","mode":3,"time":"2018-10-01T06:26:03.000Z","ept":0.005,"lat":36.622483820,"lon":127.347769262,"alt":42.568,"epx":19.634,"epy":24.246,"epv":59.110,"track":347.5203,"speed":0.076,"climb":0.102,"eps":0.53,"epc":118.22}
{"class":"SKY","device":"/dev/ttyAMA0","xdop":1.31,"ydop":1.62,"vdop":2.57,"tdop":1.81,"hdop":1.63,"gdop":3.54,"pdop":3.05,"satellites":[{"PRN":2,"el":56,"az":147,"ss":32,"used":true},{"PRN":5,"el":66,"az":22,"ss":37,"used":true},{"PRN":21,"el":-91,"az":0,"ss":20,"used":false},{"PRN":30,"el":30,"az":75,"ss":29,"used":true},{"PRN":129,"el":44,"az":152,"ss":28,"used":false},{"PRN":137,"el":44,"az":152,"ss":29,"used":true},{"PRN":70,"el":30,"az":43,"ss":19,"used":false},{"PRN":71,"el":59,"az":335,"ss":21,"used":false},{"PRN":73,"el":11,"az":121,"ss":22,"used":false},{"PRN":80,"el":18,"az":66,"ss":25,"used":false},{"PRN":86,"el":66,"az":264,"ss":16,"used":false},{"PRN":87,"el":22,"az":329,"ss":34,"used":true}]}
{"class":"TPV","device":"/dev/ttyAMA0","mode":3,"time":"2018-10-01T06:26:04.000Z","ept":0.005,"lat":36.622483497,"lon":127.347769131,"alt":42.498,"epx":19.634,"epy":24.246,"epv":59.340,"track":21.2348,"speed":0.088,"climb":0.091,"eps":0.55,"epc":118.45}
{"class":"TPV","device":"/dev/ttyAMA0","mode":3,"time":"2018-10-01T06:26:05.000Z","ept":0.005,"lat":36.622483224,"lon":127.347767753,"alt":42.657,"epx":19.634,"epy":24.246,"epv":59.340,"track":339.1329,"speed":0.035,"climb":0.107,"eps":0.51,"epc":118.68}
{"class":"TPV","device":"/dev/ttyAMA0","mode":3,"time":"2018-10-01T06:26:06.000Z","ept":0.005,"lat":36.622483252,"lon":127.347765754,"alt":42.787,"epx":19.634,"epy":24.246,"epv":59.340,"track":33.6482,"speed":0.053,"climb":0.108,"eps":0.52,"epc":118.68}
{"class":"TPV","device":"/dev/ttyAMA0","mode":3,"time":"2018-10-01T06:26:07.000Z","ept":0.005,"lat":36.622482514,"lon":127.347765080,"alt":42.762,"epx":19.634,"epy":24.246,"epv":59.340,"track":44.6541,"speed":0.071,"climb":0.100,"eps":0.53,"epc":118.68}
{"class":"TPV","device":"/dev/ttyAMA0","mode":3,"time":"2018-10-01T06:26:08.000Z","ept":0.005,"lat":36.622482134,"lon":127.347763177,"alt":43.071,"epx":19.634,"epy":24.246,"epv":59.340,"track":357.4525,"speed":0.061,"climb":0.153,"eps":0.50,"epc":118.68}
{"class":"TPV","device":"/dev/ttyAMA0","mode":3,"time":"2018-10-01T06:26:09.000Z","ept":0.005,"lat":36.622482317,"lon":127.347762552,"alt":43.362,"epx":19.634,"epy":24.246,"epv":59.340,"track":214.7445,"speed":0.215,"climb":-0.013,"eps":0.65,"epc":118.68}
{"class":"TPV","device":"/dev/ttyAMA0","mode":3,"time":"2018-10-01T06:26:10.000Z","ept":0.005,"lat":36.622481896,"lon":127.347761196,"alt":43.525,"epx":19.634,"epy":24.246,"epv":59.340,"track":207.0680,"speed":0.145,"climb":-0.111,"eps":0.57,"epc":118.68}
{"class":"TPV","device":"/dev/ttyAMA0","mode":3,"time":"2018-10-01T06:26:11.000Z","ept":0.005,"lat":36.622482065,"lon":127.347760852,"alt":43.651,"epx":19.634,"epy":24.246,"epv":59.340,"track":82.2267,"speed":0.035,"climb":-0.073,"eps":0.55,"epc":118.68}
{"class":"TPV","device":"/dev/ttyAMA0","mode":3,"time":"2018-10-01T06:26:12.000Z","ept":0.005,"lat":36.622481442,"lon":127.347761025,"alt":43.677,"epx":19.634,"epy":24.246,"epv":59.340,"track":92.1839,"speed":0.072,"climb":0.004,"eps":0.55,"epc":118.68}
{"class":"TPV","device":"/dev/ttyAMA0","mode":3,"time":"2018-10-01T06:26:13.000Z","ept":0.005,"lat":36.622481702,"lon":127.347761313,"alt":43.739,"epx":19.634,"epy":24.246,"epv":59.340,"track":58.7827,"speed":0.162,"climb":0.021,"eps":0.63,"epc":118.68}
{"class":"SKY","device":"/dev/ttyAMA0","xdop":1.31,"ydop":1.62,"vdop":2.58,"tdop":1.81,"hdop":1.63,"gdop":3.55,"pdop":3.05,"satellites":[{"PRN":2,"el":56,"az":147,"ss":31,"used":true},{"PRN":5,"el":66,"az":22,"ss":38,"used":true},{"PRN":21,"el":-91,"az":0,"ss":27,"used":false},{"PRN":30,"el":30,"az":75,"ss":28,"used":true},{"PRN":129,"el":44,"az":152,"ss":29,"used":false},{"PRN":137,"el":44,"az":152,"ss":30,"used":true},{"PRN":70,"el":30,"az":43,"ss":22,"used":false},{"PRN":71,"el":59,"az":335,"ss":20,"used":false},{"PRN":73,"el":11,"az":121,"ss":26,"used":false},{"PRN":80,"el":18,"az":66,"ss":26,"used":false},{"PRN":87,"el":22,"az":329,"ss":32,"used":true}]}
{"class":"TPV","device":"/dev/ttyAMA0","mode":3,"time":"2018-10-01T06:26:14.000Z","ept":0.005,"lat":36.622481625,"lon":127.347760719,"alt":43.901,"epx":19.634,"epy":24.246,"epv":59.340,"track":230.6323,"speed":0.060,"climb":0.068,"eps":0.56,"epc":118.68}
{"class":"TPV","device":"/dev/ttyAMA0","mode":3,"time":"2018-10-01T06:26:15.000Z","ept":0.005,"lat":36.622482851,"lon":127.347761739,"alt":44.120,"epx":19.634,"epy":24.246,"epv":59.340,"track":73.1980,"speed":0.033,"climb":0.037,"eps":0.50,"epc":118.68}
{"class":"TPV","device":"/dev/ttyAMA0","mode":3,"time":"2018-10-01T06:26:16.000Z","ept":0.005,"lat":36.622483532,"lon":127.347762033,"alt":44.421,"epx":19.634,"epy":24.246,"epv":59.340,"track":260.3667,"speed":0.059,"climb":0.047,"eps":0.54,"epc":118.68}
{"class":"TPV","device":"/dev/ttyAMA0","mode":3,"time":"2018-10-01T06:26:17.000Z","ept":0.005,"lat":36.622482909,"lon":127.347761570,"alt":44.581,"epx":19.634,"epy":24.246,"epv":59.340,"track":111.9076,"speed":0.032,"climb":0.066,"eps":0.43,"epc":118.68}
{"class":"TPV","device":"/dev/ttyAMA0","mode":3,"time":"2018-10-01T06:26:18.000Z","ept":0.005,"lat":36.622482678,"lon":127.347761577,"alt":44.766,"epx":19.634,"epy":24.246,"epv":59.340,"track":60.9981,"speed":0.073,"climb":0.087,"eps":0.50,"epc":118.68}
{"class":"TPV","device":"/dev/ttyAMA0","mode":3,"time":"2018-10-01T06:26:19.000Z","ept":0.005,"lat":36.622483528,"lon":127.347763196,"alt":44.723,"epx":19.634,"epy":24.246,"epv":59.340,"track":216.6719,"speed":0.191,"climb":-0.113,"eps":0.55,"epc":118.68}
{"class":"TPV","device":"/dev/ttyAMA0","mode":3,"time":"2018-10-01T06:26:20.000Z","ept":0.005,"lat":36.622483540,"lon":127.347764110,"alt":44.755,"epx":19.634,"epy":24.246,"epv":59.340,"track":207.1234,"speed":0.218,"climb":-0.208,"eps":0.52,"epc":118.68}
{"class":"TPV","device":"/dev/ttyAMA0","mode":3,"time":"2018-10-01T06:26:21.000Z","ept":0.005,"lat":36.622483595,"lon":127.347764094,"alt":44.680,"epx":19.634,"epy":24.246,"epv":59.340,"track":216.5869,"speed":0.076,"climb":-0.136,"eps":0.50,"epc":118.68}
{"class":"TPV","device":"/dev/ttyAMA0","mode":3,"time":"2018-10-01T06:26:22.000Z","ept":0.005,"lat":36.622483395,"lon":127.347763430,"alt":44.576,"epx":19.634,"epy":24.246,"epv":59.340,"track":4.4092,"speed":0.035,"climb":-0.081,"eps":0.48,"epc":118.68}
{"class":"TPV","device":"/dev/ttyAMA0","mode":3,"time":"2018-10-01T06:26:23.000Z","ept":0.005,"lat":36.622483322,"lon":127.347763210,"alt":44.519,"epx":19.634,"epy":24.246,"epv":59.570,"track":39.4840,"speed":0.013,"climb":-0.047,"eps":0.49,"epc":118.91}
{"class":"SKY","device":"/dev/ttyAMA0","xdop":1.31,"ydop":1.62,"vdop":2.59,"tdop":1.82,"hdop":1.62,"gdop":3.55,"pdop":3.05,"satellites":[{"PRN":2,"el":56,"az":147,"ss":30,"used":true},{"PRN":5,"el":66,"az":22,"ss":38,"used":true},{"PRN":21,"el":-91,"az":0,"ss":28,"used":false},{"PRN":30,"el":30,"az":75,"ss":32,"used":true},{"PRN":129,"el":44,"az":152,"ss":29,"used":false},{"PRN":137,"el":44,"az":152,"ss":30,"used":true},{"PRN":70,"el":30,"az":43,"ss":17,"used":false},{"PRN":71,"el":59,"az":335,"ss":12,"used":false},{"PRN":73,"el":11,"az":121,"ss":28,"used":false},{"PRN":80,"el":18,"az":66,"ss":25,"used":false},{"PRN":87,"el":22,"az":329,"ss":30,"used":true}]}
{"class":"TPV","device":"/dev/ttyAMA0","mode":3,"time":"2018-10-01T06:26:24.000Z","ept":0.005,"lat":36.622483105,"lon":127.347763210,"alt":44.502,"epx":19.634,"epy":24.246,"epv":59.570,"track":121.2987,"speed":0.012,"climb":-0.042,"eps":0.49,"epc":119.14}
{"class":"TPV","device":"/dev/ttyAMA0","mode":3,"time":"2018-10-01T06:26:25.000Z","ept":0.005,"lat":36.622482885,"lon":127.347762913,"alt":44.568,"epx":19.634,"epy":24.246,"epv":59.570,"track":236.8651,"speed":0.033,"climb":-0.009,"eps":0.57,"epc":119.14}
{"class":"TPV","device":"/dev/ttyAMA0","mode":3,"time":"2018-10-01T06:26:26.000Z","ept":0.005,"lat":36.622482536,"lon":127.347762510,"alt":44.536,"epx":19.634,"epy":24.246,"epv":59.570,"track":133.8314,"speed":0.066,"climb":0.011,"eps":0.39,"epc":119.14}
{"class":"TPV","device":"/dev/ttyAMA0","mode":3,"time":"2018-10-01T06:26:27.000Z","ept":0.005,"lat":36.622481764,"lon":127.347762167,"alt":44.584,"epx":19.634,"epy":24.246,"epv":59.570,"track":247.9190,"speed":0.028,"climb":0.014,"eps":0.58,"epc":119.14}
{"class":"TPV","device":"/dev/ttyAMA0","mode":3,"time":"2018-10-01T06:26:28.000Z","ept":0.005,"lat":36.622481261,"lon":127.347761828,"alt":44.592,"epx":19.634,"epy":24.246,"epv":59.570,"track":30.8939,"speed":0.152,"climb":0.093,"eps":0.56,"epc":119.14}
{"class":"TPV","device":"/dev/ttyAMA0","mode":3,"time":"2018-10-01T06:26:29.000Z","ept":0.005,"lat":36.622482630,"lon":127.347762408,"alt":44.723,"epx":19.634,"epy":24.246,"epv":59.570,"track":225.9190,"speed":0.145,"climb":-0.049,"eps":0.58,"epc":119.14}
{"class":"TPV","device":"/dev/ttyAMA0","mode":3,"time":"2018-10-01T06:26:30.000Z","ept":0.005,"lat":36.622481840,"lon":127.347761191,"alt":44.774,"epx":19.634,"epy":24.246,"epv":59.570,"track":217.8471,"speed":0.215,"climb":-0.157,"eps":0.55,"epc":119.14}
{"class":"TPV","device":"/dev/ttyAMA0","mode":3,"time":"2018-10-01T06:26:31.000Z","ept":0.005,"lat":36.622481557,"lon":127.347760293,"alt":44.800,"epx":19.634,"epy":24.246,"epv":59.570,"track":195.2064,"speed":0.075,"climb":-0.104,"eps":0.51,"epc":119.14}
{"class":"TPV","device":"/dev/ttyAMA0","mode":3,"time":"2018-10-01T06:26:32.000Z","ept":0.005,"lat":36.622481329,"lon":127.347760137,"alt":44.783,"epx":19.634,"epy":24.246,"epv":59.570,"track":39.4840,"speed":0.013,"climb":-0.047,"eps":0.49,"epc":119.14}
{"class":"TPV","device":"/dev/ttyAMA0","mode":3,"time":"2018-10-01T06:26:33.000Z","ept":0.005,"lat":36.622482275,"lon":127.347760413,"alt":44.759,"epx":19.634,"epy":24.246,"epv":59.570,"track":34.7182,"speed":0.043,"climb":-0.014,"eps":0.58,"epc":119.14}
{"class":"SKY","device":"/dev/ttyAMA0","xdop":1.31,"ydop":1.62,"vdop":2.59,"tdop":1.82,"hdop":1.62,"gdop":3.56,"pdop":3.06,"satellites":[{"PRN":2,"el":56,"az":147,"ss":32,"used":true},{"PRN":5,"el":66,"az":22,"ss":38,"used":true},{"PRN":21,"el":-91,"az":0,"ss":27,"used":false},{"PRN":30,"el":30,"az":75,"ss":31,"used":true},{"PRN":129,"el":44,"az":152,"ss":29,"used":false},{"PRN":137,"el":44,"az":152,"ss":30,"used":true},{"PRN":70,"el":30,"az":43,"ss":22,"used":false},{"PRN":71,"el":59,"az":335,"ss":22,"used":false},{"PRN":73,"el":11,"az":121,"ss":24,"used":false},{"PRN":80,"el":18,"az":65,"ss":28,"used":false},{"PRN":87,"el":22,"az":329,"ss":32,"used":true}]}
{"class":"TPV","device":"/dev/ttyAMA0","mode":3,"time":"2018-10-01T06:26:34.000Z","ept":0.005,"lat":36.622482057,"lon":127.347760193,"alt":44.691,"epx":19.634,"epy":24.246,"epv":59.570,"track":42.4988,"speed":0.030,"climb":0.004,"eps":0.59,"epc":119.14}
{"class":"TPV","device":"/dev/ttyAMA0","mode":3,"time":"2018-10-01T06:26:35.000Z","ept":0.005,"lat":36.622481977,"lon":127.347759477,"alt":44.687,"epx":4.908,"epy":6.062,"epv":14.892,"track":85.4176,"speed":0.014,"climb":-0.002,"eps":0.41,"epc":74.46}
{"class":"TPV","device":"/dev/ttyAMA0","mode":3,"time":"2018-10-01T06:26:36.000Z","ept":0.005,"lat":36.622481791,"lon":127.347758313,"alt":44.698,"epx":4.908,"epy":6.062,"epv":13.283,"track":276.4816,"speed":0.044,"climb":-0.007,"eps":0.40,"epc":28.17}
{"class":"TPV","device":"/dev/ttyAMA0","mode":3,"time":"2018-10-01T06:26:37.000Z","ept":0.005,"lat":36.622481605,"lon":127.347757466,"alt":44.642,"epx":4.908,"epy":6.062,"epv":13.283,"track":347.3073,"speed":0.009,"climb":-0.011,"eps":0.40,"epc":26.57}
{"class":"TPV","device":"/dev/ttyAMA0","mode":3,"time":"2018-10-01T06:26:38.000Z","ept":0.005,"lat":36.622481936,"lon":127.347756996,"alt":44.676,"epx":4.908,"epy":6.062,"epv":13.283,"track":12.1716,"speed":0.104,"climb":0.081,"eps":0.51,"epc":26.57}
{"class":"TPV","device":"/dev/ttyAMA0","mode":3,"time":"2018-10-01T06:26:39.000Z","ept":0.005,"lat":36.622482584,"lon":127.347756699,"alt":44.814,"epx":4.908,"epy":6.062,"epv":13.283,"track":219.2280,"speed":0.162,"climb":-0.049,"eps":0.52,"epc":26.57}
{"class":"TPV","device":"/dev/ttyAMA0","mode":3,"time":"2018-10-01T06:26:40.000Z","ept":0.005,"lat":36.622481779,"lon":127.347754370,"alt":44.800,"epx":4.908,"epy":6.062,"epv":13.283,"track":225.3203,"speed":0.269,"climb":-0.198,"eps":0.53,"epc":26.57}
{"class":"TPV","device":"/dev/ttyAMA0","mode":3,"time":"2018-10-01T06:26:41.000Z","ept":0.005,"lat":36.622481124,"lon":127.347753535,"alt":44.848,"epx":4.908,"epy":6.062,"epv":13.283,"track":210.1205,"speed":0.118,"climb":-0.164,"eps":0.52,"epc":26.57}
{"class":"TPV","device":"/dev/ttyAMA0","mode":3,"time":"2018-10-01T06:26:42.000Z","ept":0.005,"lat":36.622481352,"lon":127.347753373,"alt":44.931,"epx":4.908,"epy":6.062,"epv":13.283,"track":131.8237,"speed":0.036,"climb":-0.102,"eps":0.46,"epc":26.57}
{"class":"TPV","device":"/dev/ttyAMA0","mode":3,"time":"2018-10-01T06:26:43.000Z","ept":0.005,"lat":36.622481404,"lon":127.347753916,"alt":44.856,"epx":4.908,"epy":6.062,"epv":13.283,"track":50.6323,"speed":0.060,"climb":-0.068,"eps":0.45,"epc":26.57}
{"class":"SKY","device":"/dev/ttyAMA0","xdop":1.31,"ydop":1.62,"vdop":2.31,"tdop":1.67,"hdop":1.45,"gdop":3.20,"pdop":2.73,"satellites":[{"PRN":2,"el":56,"az":147,"ss":30,"used":true},{"PRN":5,"el":65,"az":23,"ss":38,"used":true},{"PRN":21,"el":-91,"az":0,"ss":27,"used":false},{"PRN":30,"el":30,"az":75,"ss":30,"used":true},{"PRN":129,"el":44,"az":152,"ss":28,"used":false},{"PRN":137,"el":44,"az":152,"ss":29,"used":true},{"PRN":70,"el":30,"az":43,"ss":19,"used":false},{"PRN":71,"el":59,"az":335,"ss":17,"used":false},{"PRN":73,"el":11,"az":121,"ss":28,"used":false},{"PRN":80,"el":18,"az":65,"ss":27,"used":true},{"PRN":87,"el":22,"az":329,"ss":31,"used":true}]}
{"class":"TPV","device":"/dev/ttyAMA0","mode":3,"time":"2018-10-01T06:26:44.000Z","ept":0.005,"lat":36.622481700,"lon":127.347754730,"alt":44.762,"epx":4.908,"epy":6.062,"epv":13.283,"track":55.9473,"speed":0.112,"climb":-0.084,"eps":0.57,"epc":26.57}
{"class":"TPV","device":"/dev/ttyAMA0","mode":3,"time":"2018-10-01T06:26:45.000Z","ept":0.005,"lat":36.622481475,"lon":127.347755649,"alt":44.711,"epx":4.908,"epy":6.062,"epv":13.283,"track":74.3029,"speed":0.030,"climb":-0.061,"eps":0.53,"epc":26.57}
{"class":"TPV","device":"/dev/ttyAMA0","mode":3,"time":"2018-10-01T06:26:46.000Z","ept":0.005,"lat":36.622481423,"lon":127.347757674,"alt":44.535,"epx":4.908,"epy":6.062,"epv":13.283,"track":65.9142,"speed":0.275,"climb":-0.101,"eps":0.98,"epc":26.57}
{"class":"TPV","device":"/dev/ttyAMA0","mode":3,"time":"2018-10-01T06:26:47.000Z","ept":0.005,"lat":36.622481818,"lon":127.347758759,"alt":44.409,"epx":4.908,"epy":6.062,"epv":13.283,"track":67.9783,"speed":0.074,"climb":-0.071,"eps":0.62,"epc":26.57}
{"class":"TPV","device":"/dev/ttyAMA0","mode":3,"time":"2018-10-01T06:26:48.000Z","ept":0.005,"lat":36.622481849,"lon":127.347758768,"alt":44.287,"epx":4.908,"epy":6.062,"epv":13.283,"track":44.1270,"speed":0.158,"climb":0.048,"eps":0.61,"epc":26.57}
{"class":"TPV","device":"/dev/ttyAMA0","mode":3,"time":"2018-10-01T06:26:49.000Z","ept":0.005,"lat":36.622482642,"lon":127.347761456,"alt":44.001,"epx":4.908,"epy":6.062,"epv":13.283,"track":81.0557,"speed":0.094,"climb":-0.120,"eps":0.83,"epc":26.57}
{"class":"TPV","device":"/dev/ttyAMA0","mode":3,"time":"2018-10-01T06:26:50.000Z","ept":0.005,"lat":36.622483653,"lon":127.347762870,"alt":44.001,"epx":4.908,"epy":6.062,"epv":13.283,"track":212.7818,"speed":0.243,"climb":-0.245,"eps":0.59,"epc":26.57}
{"class":"TPV","device":"/dev/ttyAMA0","mode":3,"time":"2018-10-01T06:26:51.000Z","ept":0.005,"lat":36.622483704,"lon":127.347762337,"alt":43.960,"epx":4.908,"epy":6.062,"epv":13.283,"track":125.8229,"speed":0.078,"climb":-0.240,"eps":0.62,"epc":26.57}
{"class":"TPV","device":"/dev/ttyAMA0","mode":3,"time":"2018-10-01T06:26:52.000Z","ept":0.005,"lat":36.622483704,"lon":127.347762019,"alt":44.027,"epx":4.908,"epy":6.062,"epv":13.283,"track":99.2537,"speed":0.084,"climb":-0.166,"eps":0.76,"epc":26.57}
{"class":"TPV","device":"/dev/ttyAMA0","mode":3,"time":"2018-10-01T06:26:53.000Z","ept":0.005,"lat":36.622484217,"lon":127.347763689,"alt":43.866,"epx":4.908,"epy":6.062,"epv":13.283,"track":62.1826,"speed":0.287,"climb":-0.130,"eps":1.13,"epc":26.57}
{"class":"SKY","device":"/dev/ttyAMA0","xdop":1.31,"ydop":1.62,"vdop":2.31,"tdop":1.67,"hdop":1.45,"gdop":3.20,"pdop":2.73,"satellites":[{"PRN":2,"el":56,"az":147,"ss":32,"used":true},{"PRN":5,"el":65,"az":23,"ss":39,"used":true},{"PRN":21,"el":-91,"az":0,"ss":28,"used":false},{"PRN":30,"el":30,"az":74,"ss":21,"used":true},{"PRN":129,"el":44,"az":152,"ss":31,"used":false},{"PRN":137,"el":44,"az":152,"ss":31,"used":true},{"PRN":70,"el":30,"az":43,"ss":23,"used":false},{"PRN":71,"el":59,"az":335,"ss":18,"used":false},{"PRN":80,"el":18,"az":65,"ss":21,"used":true},{"PRN":87,"el":22,"az":329,"ss":34,"used":true}]}
{"class":"TPV","device":"/dev/ttyAMA0","mode":3,"time":"2018-10-01T06:26:54.000Z","ept":0.005,"lat":36.622485097,"lon":127.347766413,"alt":43.684,"epx":4.908,"epy":6.062,"epv":13.283,"track":81.5068,"speed":0.181,"climb":-0.170,"eps":1.07,"epc":26.57}
{"class":"TPV","device":"/dev/ttyAMA0","mode":3,"time":"2018-10-01T06:26:55.000Z","ept":0.005,"lat":36.622484896,"lon":127.347764673,"alt":43.614,"epx":4.908,"epy":6.062,"epv":13.283,"track":165.2836,"speed":0.042,"climb":-0.130,"eps":0.61,"epc":26.57}
{"class":"TPV","device":"/dev/ttyAMA0","mode":3,"time":"2018-10-01T06:26:56.000Z","ept":0.005,"lat":36.622484658,"lon":127.347762505,"alt":43.582,"epx":4.908,"epy":6.062,"epv":10.350,"track":200.9584,"speed":0.038,"climb":-0.086,"eps":0.52,"epc":23.63}
{"class":"TPV","device":"/dev/ttyAMA0","mode":3,"time":"2018-10-01T06:26:57.000Z","ept":0.005,"lat":36.622484755,"lon":127.347763686,"alt":43.048,"epx":4.908,"epy":6.062,"epv":10.350,"track":71.8919,"speed":0.169,"climb":-0.121,"eps":1.12,"epc":20.70}
{"class":"TPV","device":"/dev/ttyAMA0","mode":3,"time":"2018-10-01T06:26:58.000Z","ept":0.005,"lat":36.622484708,"lon":127.347764231,"alt":42.636,"epx":4.908,"epy":6.062,"epv":10.408,"track":45.5129,"speed":0.186,"climb":-0.058,"eps":1.08,"epc":20.76}
{"class":"TPV","device":"/dev/ttyAMA0","mode":3,"time":"2018-10-01T06:26:59.000Z","ept":0.005,"lat":36.622486341,"lon":127.347767381,"alt":42.208,"epx":4.908,"epy":6.062,"epv":10.408,"track":64.5244,"speed":0.194,"climb":-0.163,"eps":1.12,"epc":20.82}
{"class":"TPV","device":"/dev/ttyAMA0","mode":3,"time":"2018-10-01T06:27:00.000Z","ept":0.005,"lat":36.622486789,"lon":127.347765564,"alt":42.326,"epx":4.908,"epy":6.062,"epv":10.408,"track":124.9634,"speed":0.160,"climb":-0.179,"eps":0.75,"epc":20.82}
{"class":"TPV","device":"/dev/ttyAMA0","mode":3,"time":"2018-10-01T06:27:01.000Z","ept":0.005,"lat":36.622487182,"lon":127.347766429,"alt":42.149,"epx":4.908,"epy":6.062,"epv":10.350,"track":97.9779,"speed":0.147,"climb":-0.191,"eps":0.82,"epc":20.76}
{"class":"TPV","device":"/dev/ttyAMA0","mode":3,"time":"2018-10-01T06:27:02.000Z","ept":0.005,"lat":36.622486478,"lon":127.347764713,"alt":42.322,"epx":4.908,"epy":6.062,"epv":10.350,"track":89.6949,"speed":0.169,"climb":-0.152,"eps":0.81,"epc":20.70}
{"class":"TPV","device":"/dev/ttyAMA0","mode":3,"time":"2018-10-01T06:27:03.000Z","ept":0.005,"lat":36.622486026,"lon":127.347762667,"alt":42.439,"epx":4.908,"epy":6.062,"epv":10.350,"track":59.8223,"speed":0.150,"climb":-0.135,"eps":0.82,"epc":20.70}
{"class":"SKY","device":"/dev/ttyAMA0","xdop":1.31,"ydop":1.62,"vdop":1.80,"tdop":1.15,"hdop":1.27,"gdop":2.49,"pdop":2.21,"satellites":[{"PRN":2,"el":56,"az":147,"ss":29,"used":true},{"PRN":5,"el":65,"az":23,"ss":37,"used":true},{"PRN":21,"el":5,"az":316,"ss":28,"used":true},{"PRN":30,"el":30,"az":74,"ss":20,"used":true},{"PRN":129,"el":44,"az":152,"ss":29,"used":false},{"PRN":137,"el":44,"az":152,"ss":29,"used":true},{"PRN":70,"el":30,"az":43,"ss":16,"used":false},{"PRN":71,"el":59,"az":335,"ss":21,"used":false},{"PRN":73,"el":11,"az":121,"ss":22,"used":false},{"PRN":80,"el":18,"az":65,"ss":19,"used":true},{"PRN":87,"el":22,"az":329,"ss":33,"used":true}]}
{"class":"TPV","device":"/dev/ttyAMA0","mode":3,"time":"2018-10-01T06:27:04.000Z","ept":0.005,"lat":36.622486512,"lon":127.347764163,"alt":42.199,"epx":4.908,"epy":6.062,"epv":10.350,"track":64.8497,"speed":0.196,"climb":-0.146,"eps":0.81,"epc":20.70}
{"class":"TPV","device":"/dev/ttyAMA0","mode":3,"time":"2018-10-01T06:27:05.000Z","ept":0.005,"lat":36.622485192,"lon":127.347756642,"alt":42.799,"epx":4.908,"epy":6.062,"epv":10.350,"track":48.8098,"speed":0.051,"climb":-0.079,"eps":0.68,"epc":20.70}
{"class":"TPV","device":"/dev/ttyAMA0","mode":3,"time":"2018-10-01T06:27:06.000Z","ept":0.005,"lat":36.622483719,"lon":127.347751850,"alt":43.069,"epx":4.908,"epy":6.062,"epv":10.350,"track":207.1158,"speed":0.008,"climb":-0.040,"eps":0.39,"epc":20.70}
{"class":"TPV","device":"/dev/ttyAMA0","mode":3,"time":"2018-10-01T06:27:07.000Z","ept":0.005,"lat":36.622482851,"lon":127.347749042,"alt":43.182,"epx":4.908,"epy":6.062,"epv":10.350,"track":353.4444,"speed":0.066,"climb":-0.021,"eps":0.46,"epc":20.70}
{"class":"TPV","device":"/dev/ttyAMA0","mode":3,"time":"2018-10-01T06:27:08.000Z","ept":0.005,"lat":36.622479144,"lon":127.347745283,"alt":43.199,"epx":4.908,"epy":6.062,"epv":10.350,"track":219.2356,"speed":0.095,"climb":-0.018,"eps":0.64,"epc":20.70}
{"class":"TPV","device":"/dev/ttyAMA0","mode":3,"time":"2018-10-01T06:27:09.000Z","ept":0.005,"lat":36.622478165,"lon":127.347744098,"alt":43.127,"epx":4.908,"epy":6.062,"epv":10.350,"track":221.8456,"speed":0.111,"climb":-0.023,"eps":0.67,"epc":20.70}
{"class":"TPV","device":"/dev/ttyAMA0","mode":3,"time":"2018-10-01T06:27:10.000Z","ept":0.005,"lat":36.622477968,"lon":127.347742874,"alt":43.022,"epx":4.908,"epy":6.062,"epv":10.925,"track":210.2771,"speed":0.228,"climb":-0.020,"eps":0.64,"epc":21.27}
{"class":"TPV","device":"/dev/ttyAMA0","mode":3,"time":"2018-10-01T06:27:11.000Z","ept":0.005,"lat":36.622477272,"lon":127.347741731,"alt":43.009,"epx":4.908,"epy":6.062,"epv":10.408,"track":216.3271,"speed":0.166,"climb":-0.021,"eps":0.52,"epc":21.33}
{"class":"TPV","device":"/dev/ttyAMA0","mode":3,"time":"2018-10-01T06:27:12.000Z","ept":0.005,"lat":36.622476084,"lon":127.347740723,"alt":42.935,"epx":4.908,"epy":6.062,"epv":10.408,"track":224.9247,"speed":0.068,"climb":-0.019,"eps":0.65,"epc":20.82}
{"class":"TPV","device":"/dev/ttyAMA0","mode":3,"time":"2018-10-01T06:27:13.000Z","ept":0.005,"lat":36.622475080,"lon":127.347740122,"alt":42.816,"epx":4.908,"epy":6.062,"epv":10.408,"track":240.9981,"speed":0.018,"climb":-0.022,"eps":0.38,"epc":20.82}
{"class":"SKY","device":"/dev/ttyAMA0","xdop":1.31,"ydop":1.62,"vdop":1.81,"tdop":1.15,"hdop":1.27,"gdop":2.49,"pdop":2.21,"satellites":[{"PRN":2,"el":56,"az":147,"ss":29,"used":true},{"PRN":5,"el":65,"az":24,"ss":37,"used":true},{"PRN":21,"el":5,"az":316,"ss":28,"used":true},{"PRN":30,"el":30,"az":74,"ss":19,"used":true},{"PRN":129,"el":44,"az":152,"ss":28,"used":false},{"PRN":137,"el":44,"az":152,"ss":29,"used":true},{"PRN":70,"el":29,"az":44,"ss":19,"used":false},{"PRN":71,"el":59,"az":336,"ss":18,"used":false},{"PRN":73,"el":11,"az":121,"ss":23,"used":false},{"PRN":80,"el":18,"az":65,"ss":24,"used":true},{"PRN":87,"el":22,"az":329,"ss":34,"used":true}]}
{"class":"TPV","device":"/dev/ttyAMA0","mode":3,"time":"2018-10-01T06:27:14.000Z","ept":0.005,"lat":36.622473588,"lon":127.347737266,"alt":42.905,"epx":4.908,"epy":6.062,"epv":10.408,"track":281.5516,"speed":0.031,"climb":-0.008,"eps":0.46,"epc":20.82}
{"class":"TPV","device":"/dev/ttyAMA0","mode":3,"time":"2018-10-01T06:27:15.000Z","ept":0.005,"lat":36.622472619,"lon":127.347737016,"alt":42.882,"epx":4.908,"epy":6.062,"epv":10.408,"track":101.6487,"speed":0.029,"climb":-0.009,"eps":0.50,"epc":20.82}
{"class":"TPV","device":"/dev/ttyAMA0","mode":3,"time":"2018-10-01T06:27:16.000Z","ept":0.005,"lat":36.622471201,"lon":127.347736092,"alt":42.859,"epx":4.908,"epy":6.062,"epv":10.408,"track":333.8261,"speed":0.022,"climb":-0.010,"eps":0.30,"epc":20.82}
{"class":"TPV","device":"/dev/ttyAMA0","mode":3,"time":"2018-10-01T06:27:17.000Z","ept":0.005,"lat":36.622469850,"lon":127.347735847,"alt":42.742,"epx":4.908,"epy":6.062,"epv":10.408,"track":320.6221,"speed":0.015,"climb":-0.016,"eps":0.26,"epc":20.82}
{"class":"TPV","device":"/dev/ttyAMA0","mode":3,"time":"2018-10-01T06:27:18.000Z","ept":0.005,"lat":36.622469402,"lon":127.347735173,"alt":42.742,"epx":4.908,"epy":6.062,"epv":10.408,"track":11.4784,"speed":0.073,"climb":-0.012,"eps":0.43,"epc":20.82}
{"class":"TPV","device":"/dev/ttyAMA0","mode":3,"time":"2018-10-01T06:27:19.000Z","ept":0.005,"lat":36.622468704,"lon":127.347734907,"alt":42.662,"epx":4.908,"epy":6.062,"epv":10.408,"track":351.3468,"speed":0.025,"climb":-0.017,"eps":0.35,"epc":20.82}
{"class":"TPV","device":"/dev/ttyAMA0","mode":3,"time":"2018-10-01T06:27:20.000Z","ept":0.005,"lat":36.622469489,"lon":127.347735068,"alt":42.662,"epx":4.908,"epy":6.062,"epv":10.408,"track":206.0913,"speed":0.156,"climb":-0.013,"eps":0.46,"epc":20.82}
{"class":"TPV","device":"/dev/ttyAMA0","mode":3,"time":"2018-10-01T06:27:21.000Z","ept":0.005,"lat":36.622469665,"lon":127.347734759,"alt":42.619,"epx":4.908,"epy":6.062,"epv":10.408,"track":214.9886,"speed":0.137,"climb":-0.017,"eps":0.50,"epc":20.82}
{"class":"TPV","device":"/dev/ttyAMA0","mode":3,"time":"2018-10-01T06:27:22.000Z","ept":0.005,"lat":36.622469237,"lon":127.347733861,"alt":42.633,"epx":4.908,"epy":6.062,"epv":10.408,"track":207.2659,"speed":0.057,"climb":-0.016,"eps":0.50,"epc":20.82}
{"class":"TPV","device":"/dev/ttyAMA0","mode":3,"time":"2018-10-01T06:27:23.000Z","ept":0.005,"lat":36.622468975,"lon":127.347733036,"alt":42.588,"epx":4.908,"epy":6.062,"epv":10.408,"track":342.1550,"speed":0.038,"climb":-0.015,"eps":0.31,"epc":20.82}
