{"class":"VERSION","release":"3.16","rev":"3.16-4","proto_major":3,"proto_minor":11}
{"class":"DEVICES","devices":[{"class":"DEVICE","path":"/dev/ttyAMA0","activated":"2018-10-01T07:52:45.116Z","native":0,"bps":9600,"parity":"N","stopbits":1,"cycle":1.00}]}
{"class":"WATCH","enable":true,"json":true,"nmea":false,"raw":0,"scaled":false,"timing":false,"split24":false,"pps":false}
{"class":"DEVICE","path":"/dev/ttyAMA0","driver":"NMEA0183","activated":"2018-10-01T07:52:45.117Z","native":0,"bps":9600,"parity":"N","stopbits":1,"cycle":1.00}
{"class":"TPV","device":"/dev/ttyAMA0","mode":1}
{"class":"TPV","device":"/dev/ttyAMA0","mode":1}
{"class":"SKY","device":"/dev/ttyAMA0","vdop":1.00,"hdop":4.93,"pdop":5.03,"satellites":[{"PRN":13,"el":63,"az":33,"ss":30,"used":false},{"PRN":137,"el":44,"az":152,"ss":27,"used":false}]}
{"class":"SKY","device":"/dev/ttyAMA0","vdop":1.00,"hdop":4.93,"pdop":5.03,"satellites":[{"PRN":13,"el":63,"az":33,"ss":30,"used":false},{"PRN":137,"el":44,"az":152,"ss":27,"used":false},{"PRN":65,"el":16,"az":285,"ss":0,"used":false},{"PRN":71,"el":41,"az":44,"ss":27,"used":true},{"PRN":74,"el":27,"az":137,"ss":27,"used":true},{"PRN":86,"el":27,"az":210,"ss":0,"used":false},{"PRN":87,"el":43,"az":282,"ss":0,"used":false},{"PRN":88,"el":17,"az":329,"ss":25,"used":false}]}
{"class":"DEVICE","path":"/dev/ttyAMA0","driver":"u-blox","activated":"2018-10-01T07:52:45.700Z","flags":1,"native":1,"bps":9600,"parity":"N","stopbits":1,"cycle":1.00,"mincycle":0.25}
{"class":"TPV","device":"/dev/ttyAMA0","mode":2,"time":"2018-10-01T07:52:47.000Z","ept":0.005,"lat":36.622293915,"lon":127.348960630,"track":76.9499,"speed":0.409,"eps":1.45}
{"class":"TPV","device":"/dev/ttyAMA0","mode":2,"time":"2018-10-01T07:52:48.000Z","ept":0.005,"lat":36.622295629,"lon":127.348959580,"track":86.6875,"speed":0.427,"eps":1.44}
{"class":"TPV","device":"/dev/ttyAMA0","mode":2,"time":"2018-10-01T07:52:49.000Z","ept":0.005,"lat":36.622296536,"lon":127.348955892,"track":67.0023,"speed":0.142,"eps":1.40}
{"class":"TPV","device":"/dev/ttyAMA0","mode":2,"time":"2018-10-01T07:52:50.000Z","ept":0.005,"lat":36.622296555,"lon":127.348944454,"track":77.4130,"speed":0.057,"eps":1.43}
{"class":"TPV","device":"/dev/ttyAMA0","mode":2,"time":"2018-10-01T07:52:51.000Z","ept":0.005,"lat":36.622297137,"lon":127.348936973,"track":250.8722,"speed":0.081,"eps":1.40}
{"class":"TPV","device":"/dev/ttyAMA0","mode":2,"time":"2018-10-01T07:52:52.000Z","ept":0.005,"lat":36.622298629,"lon":127.348931346,"track":281.5993,"speed":0.059,"eps":1.33}
{"class":"TPV","device":"/dev/ttyAMA0","mode":2,"time":"2018-10-01T07:52:53.000Z","ept":0.005,"lat":36.622299127,"lon":127.348926814,"track":295.4246,"speed":0.115,"eps":1.18}
{"class":"TPV","device":"/dev/ttyAMA0","mode":2,"time":"2018-10-01T07:52:54.000Z","ept":0.005,"lat":36.622298800,"lon":127.348921372,"track":325.6799,"speed":0.014,"eps":0.57}
{"class":"TPV","device":"/dev/ttyAMA0","mode":2,"time":"2018-10-01T07:52:55.000Z","ept":0.005,"lat":36.622298146,"lon":127.348912997,"track":25.4145,"speed":0.071,"eps":0.95}
{"class":"TPV","device":"/dev/ttyAMA0","mode":2,"time":"2018-10-01T07:52:56.000Z","ept":0.005,"lat":36.622298367,"lon":127.348907433,"track":72.2630,"speed":0.124,"eps":1.42}
{"class":"TPV","device":"/dev/ttyAMA0","mode":2,"time":"2018-10-01T07:52:57.000Z","ept":0.005,"lat":36.622299484,"lon":127.348906664,"track":43.5837,"speed":0.067,"eps":1.16}
{"class":"TPV","device":"/dev/ttyAMA0","mode":2,"time":"2018-10-01T07:52:58.000Z","ept":0.005,"lat":36.622300340,"lon":127.348912478,"track":92.1846,"speed":0.072,"eps":1.40}
{"class":"TPV","device":"/dev/ttyAMA0","mode":2,"time":"2018-10-01T07:52:59.000Z","ept":0.005,"lat":36.622300996,"lon":127.348914683,"track":264.6657,"speed":0.249,"eps":1.42}
{"class":"TPV","device":"/dev/ttyAMA0","mode":2,"time":"2018-10-01T07:53:00.000Z","ept":0.005,"lat":36.622301764,"lon":127.348915815,"track":263.5260,"speed":0.228,"eps":1.43}
{"class":"TPV","device":"/dev/ttyAMA0","mode":3,"time":"2018-10-01T07:53:01.000Z","ept":0.005,"lat":36.622733082,"lon":127.344978643,"alt":-204.634,"epv":23.000,"track":33.8484,"speed":0.072,"climb":0.020,"eps":37.27}
{"class":"TPV","device":"/dev/ttyAMA0","mode":3,"time":"2018-10-01T07:53:02.000Z","ept":0.005,"lat":36.622791765,"lon":127.344617620,"alt":-237.500,"epv":2299.770,"track":83.0930,"speed":0.278,"climb":0.005,"eps":2.84,"epc":2322.77}
{"class":"TPV","device":"/dev/ttyAMA0","mode":3,"time":"2018-10-01T07:53:03.000Z","ept":0.005,"lat":36.622875588,"lon":127.343928414,"alt":-309.975,"epv":2299.770,"track":80.5999,"speed":0.235,"climb":-0.001,"eps":1.86,"epc":4599.54}
{"class":"TPV","device":"/dev/ttyAMA0","mode":3,"time":"2018-10-01T07:53:04.000Z","ept":0.005,"lat":36.622922093,"lon":127.343479126,"alt":-356.897,"epv":2299.770,"track":74.8335,"speed":0.131,"climb":0.004,"eps":1.58,"epc":4599.54}
{"class":"TPV","device":"/dev/ttyAMA0","mode":3,"time":"2018-10-01T07:53:05.000Z","ept":0.005,"lat":36.622977011,"lon":127.343026785,"alt":-404.857,"epv":2299.770,"track":90.2822,"speed":0.050,"climb":0.000,"eps":1.47,"epc":4599.54}
{"class":"TPV","device":"/dev/ttyAMA0","mode":3,"time":"2018-10-01T07:53:06.000Z","ept":0.005,"lat":36.623059961,"lon":127.342425954,"alt":-473.144,"epv":2299.770,"track":84.6169,"speed":0.235,"climb":0.004,"eps":1.39,"epc":4599.54}
{"class":"TPV","device":"/dev/ttyAMA0","mode":3,"time":"2018-10-01T07:53:07.000Z","ept":0.005,"lat":36.623117198,"lon":127.342025221,"alt":-519.907,"epv":2299.770,"track":106.5010,"speed":0.092,"climb":0.001,"eps":1.25,"epc":4599.54}
{"class":"TPV","device":"/dev/ttyAMA0","mode":3,"time":"2018-10-01T07:53:08.000Z","ept":0.005,"lat":36.623158204,"lon":127.341703041,"alt":-556.252,"epv":2299.770,"track":278.5081,"speed":0.073,"climb":0.002,"eps":1.30,"epc":4599.54}
{"class":"TPV","device":"/dev/ttyAMA0","mode":3,"time":"2018-10-01T07:53:09.000Z","ept":0.005,"lat":36.623183720,"lon":127.341474197,"alt":-580.579,"epv":2299.770,"track":101.5948,"speed":0.059,"climb":-0.001,"eps":1.25,"epc":4599.54}
{"class":"TPV","device":"/dev/ttyAMA0","mode":3,"time":"2018-10-01T07:53:10.000Z","ept":0.005,"lat":36.623225091,"lon":127.341098804,"alt":-619.207,"epv":2299.770,"track":270.2811,"speed":0.050,"climb":-0.000,"eps":1.30,"epc":4599.54}
{"class":"TPV","device":"/dev/ttyAMA0","mode":3,"time":"2018-10-01T07:53:11.000Z","ept":0.005,"lat":36.623251775,"lon":127.340892766,"alt":-642.250,"epv":2299.770,"track":256.8884,"speed":0.216,"climb":-0.001,"eps":1.29,"epc":4599.54}
{"class":"TPV","device":"/dev/ttyAMA0","mode":3,"time":"2018-10-01T07:53:12.000Z","ept":0.005,"lat":36.623291526,"lon":127.340536883,"alt":-679.446,"epv":2299.770,"track":205.4093,"speed":0.028,"climb":0.001,"eps":0.87,"epc":4599.54}
{"class":"TPV","device":"/dev/ttyAMA0","mode":3,"time":"2018-10-01T07:53:13.000Z","ept":0.005,"lat":36.623318996,"lon":127.340276429,"alt":-706.595,"epv":2299.770,"track":155.8539,"speed":0.043,"climb":0.003,"eps":0.54,"epc":4599.54}
{"class":"TPV","device":"/dev/ttyAMA0","mode":3,"time":"2018-10-01T07:53:14.000Z","ept":0.005,"lat":36.623307443,"lon":127.340365153,"alt":-698.015,"epv":2299.770,"track":100.2027,"speed":0.162,"climb":0.005,"eps":1.23,"epc":4599.54}
{"class":"TPV","device":"/dev/ttyAMA0","mode":3,"time":"2018-10-01T07:53:15.000Z","ept":0.005,"lat":36.623307101,"lon":127.340351042,"alt":-699.556,"epv":2299.770,"track":120.4951,"speed":0.079,"climb":0.003,"eps":1.05,"epc":4599.54}
{"class":"TPV","device":"/dev/ttyAMA0","mode":3,"time":"2018-10-01T07:53:16.000Z","ept":0.005,"lat":36.623305193,"lon":127.340338895,"alt":-700.260,"epv":2299.770,"track":107.4881,"speed":0.153,"climb":-0.005,"eps":1.18,"epc":4599.54}
{"class":"SKY","device":"/dev/ttyAMA0","vdop":99.99,"tdop":99.99,"hdop":89.01,"gdop":99.99,"pdop":99.99,"satellites":[{"PRN":13,"el":62,"az":33,"ss":28,"used":true},{"PRN":194,"el":37,"az":148,"ss":29,"used":true},{"PRN":71,"el":41,"az":45,"ss":30,"used":true},{"PRN":74,"el":27,"az":137,"ss":31,"used":true},{"PRN":88,"el":17,"az":329,"ss":21,"used":false}]}
{"class":"TPV","device":"/dev/ttyAMA0","mode":3,"time":"2018-10-01T07:53:17.000Z","ept":0.005,"lat":36.623311529,"lon":127.340246569,"alt":-708.950,"epv":2299.770,"track":218.2164,"speed":0.189,"climb":-0.002,"eps":1.27,"epc":4599.54}
{"class":"TPV","device":"/dev/ttyAMA0","mode":3,"time":"2018-10-01T07:53:18.000Z","ept":0.005,"lat":36.623311997,"lon":127.340215657,"alt":-711.853,"epv":2299.770,"track":250.1815,"speed":0.339,"climb":0.004,"eps":1.59,"epc":4599.54}
{"class":"TPV","device":"/dev/ttyAMA0","mode":3,"time":"2018-10-01T07:53:19.000Z","ept":0.005,"lat":36.623310636,"lon":127.340197430,"alt":-712.857,"epv":2299.770,"track":243.9578,"speed":0.344,"climb":0.002,"eps":1.59,"epc":4599.54}
{"class":"TPV","device":"/dev/ttyAMA0","mode":3,"time":"2018-10-01T07:53:20.000Z","ept":0.005,"lat":36.623286790,"lon":127.340397874,"alt":-692.501,"epv":2299.770,"track":67.4972,"speed":0.171,"climb":-0.004,"eps":1.75,"epc":4599.54}
{"class":"TPV","device":"/dev/ttyAMA0","mode":3,"time":"2018-10-01T07:53:21.000Z","ept":0.005,"lat":36.623280687,"lon":127.340452883,"alt":-687.215,"epv":2299.770,"track":263.4811,"speed":0.334,"climb":0.001,"eps":1.36,"epc":4599.54}
{"class":"TPV","device":"/dev/ttyAMA0","mode":3,"time":"2018-10-01T07:53:22.000Z","ept":0.005,"lat":36.623258527,"lon":127.340636702,"alt":-668.133,"epv":2299.770,"track":260.9173,"speed":0.450,"climb":-0.005,"eps":1.31,"epc":4599.54}
{"class":"TPV","device":"/dev/ttyAMA0","mode":3,"time":"2018-10-01T07:53:23.000Z","ept":0.005,"lat":36.623237390,"lon":127.340824341,"alt":-649.238,"epv":2299.770,"track":259.9724,"speed":0.293,"climb":0.002,"eps":1.31,"epc":4599.54}
{"class":"TPV","device":"/dev/ttyAMA0","mode":3,"time":"2018-10-01T07:53:24.000Z","ept":0.005,"lat":36.623233537,"lon":127.340842635,"alt":-647.154,"epv":2297.010,"track":261.6268,"speed":0.178,"climb":0.001,"eps":1.29,"epc":4596.78}
{"class":"TPV","device":"/dev/ttyAMA0","mode":3,"time":"2018-10-01T07:53:25.000Z","ept":0.005,"lat":36.623221048,"lon":127.340917598,"alt":-638.551,"epv":2289.420,"track":252.5846,"speed":0.218,"climb":0.004,"eps":1.27,"epc":4586.43}
{"class":"TPV","device":"/dev/ttyAMA0","mode":3,"time":"2018-10-01T07:53:26.000Z","ept":0.005,"lat":36.623221599,"lon":127.340903759,"alt":-640.058,"epv":2281.830,"track":258.5289,"speed":0.200,"climb":0.003,"eps":1.28,"epc":4571.25}
{"class":"SKY","device":"/dev/ttyAMA0","vdop":99.21,"tdop":99.99,"hdop":85.78,"gdop":99.99,"pdop":99.99,"satellites":[{"PRN":2,"el":15,"az":159,"ss":16,"used":false},{"PRN":13,"el":62,"az":33,"ss":27,"used":true},{"PRN":194,"el":37,"az":148,"ss":29,"used":true},{"PRN":71,"el":41,"az":45,"ss":30,"used":true},{"PRN":74,"el":27,"az":137,"ss":31,"used":true},{"PRN":88,"el":17,"az":329,"ss":20,"used":false}]}
{"class":"TPV","device":"/dev/ttyAMA0","mode":3,"time":"2018-10-01T07:53:27.000Z","ept":0.005,"lat":36.623215340,"lon":127.340951859,"alt":-635.419,"epv":2274.240,"track":257.4082,"speed":0.115,"climb":0.000,"eps":1.27,"epc":4556.07}
{"class":"TPV","device":"/dev/ttyAMA0","mode":3,"time":"2018-10-01T07:53:28.000Z","ept":0.005,"lat":36.623205128,"lon":127.341043985,"alt":-626.486,"epv":2266.880,"track":247.8496,"speed":0.067,"climb":0.001,"eps":1.23,"epc":4541.12}
{"class":"TPV","device":"/dev/ttyAMA0","mode":3,"time":"2018-10-01T07:53:29.000Z","ept":0.005,"lat":36.623198058,"lon":127.341111246,"alt":-620.050,"epv":2259.520,"track":92.1799,"speed":0.036,"climb":0.002,"eps":1.28,"epc":4526.40}
{"class":"TPV","device":"/dev/ttyAMA0","mode":3,"time":"2018-10-01T07:53:30.000Z","ept":0.005,"lat":36.623180434,"lon":127.341278851,"alt":-603.053,"epv":2252.160,"track":145.6757,"speed":0.042,"climb":-0.003,"eps":0.67,"epc":4511.68}
{"class":"TPV","device":"/dev/ttyAMA0","mode":3,"time":"2018-10-01T07:53:31.000Z","ept":0.005,"lat":36.623162673,"lon":127.341423089,"alt":-587.913,"epv":2244.800,"track":262.3522,"speed":0.220,"climb":0.006,"eps":1.28,"epc":4496.96}
{"class":"TPV","device":"/dev/ttyAMA0","mode":3,"time":"2018-10-01T07:53:32.000Z","ept":0.005,"lat":36.623142509,"lon":127.341601645,"alt":-569.850,"epv":2237.440,"track":263.4979,"speed":0.562,"climb":0.002,"eps":1.28,"epc":4482.24}
{"class":"TPV","device":"/dev/ttyAMA0","mode":3,"time":"2018-10-01T07:53:33.000Z","ept":0.005,"lat":36.623131013,"lon":127.341707210,"alt":-559.535,"epv":2230.310,"track":263.3971,"speed":0.320,"climb":-0.001,"eps":1.30,"epc":4467.75}
{"class":"TPV","device":"/dev/ttyAMA0","mode":3,"time":"2018-10-01T07:53:34.000Z","ept":0.005,"lat":36.623126253,"lon":127.341748497,"alt":-555.790,"epv":2223.180,"track":261.6274,"speed":0.178,"climb":0.001,"eps":1.30,"epc":4453.49}
{"class":"TPV","device":"/dev/ttyAMA0","mode":3,"time":"2018-10-01T07:53:35.000Z","ept":0.005,"lat":36.623122411,"lon":127.341775871,"alt":-553.122,"epv":2216.050,"track":0.0000,"speed":0.000,"climb":0.000,"eps":0.49,"epc":4439.23}
{"class":"TPV","device":"/dev/ttyAMA0","mode":3,"time":"2018-10-01T07:53:36.000Z","ept":0.005,"lat":36.623119214,"lon":127.341787864,"alt":-551.974,"epv":2208.920,"track":70.8679,"speed":0.081,"climb":-0.002,"eps":1.25,"epc":4424.97}
{"class":"SKY","device":"/dev/ttyAMA0","vdop":96.04,"tdop":99.99,"hdop":82.77,"gdop":99.99,"pdop":99.99,"satellites":[{"PRN":2,"el":15,"az":159,"ss":16,"used":false},{"PRN":13,"el":62,"az":33,"ss":28,"used":true},{"PRN":129,"el":45,"az":159,"ss":27,"used":false},{"PRN":194,"el":37,"az":148,"ss":29,"used":true},{"PRN":71,"el":41,"az":45,"ss":30,"used":true},{"PRN":74,"el":27,"az":137,"ss":30,"used":true},{"PRN":88,"el":17,"az":329,"ss":20,"used":false}]}
{"class":"TPV","device":"/dev/ttyAMA0","mode":3,"time":"2018-10-01T07:53:37.000Z","ept":0.005,"lat":36.623108990,"lon":127.341863247,"alt":-543.759,"epv":2202.020,"track":270.2816,"speed":0.100,"climb":-0.001,"eps":1.28,"epc":4410.94}
{"class":"TPV","device":"/dev/ttyAMA0","mode":3,"time":"2018-10-01T07:53:38.000Z","ept":0.005,"lat":36.623101744,"lon":127.341916481,"alt":-538.185,"epv":2194.890,"track":111.4638,"speed":0.103,"climb":0.000,"eps":1.18,"epc":4396.91}
{"class":"TPV","device":"/dev/ttyAMA0","mode":3,"time":"2018-10-01T07:53:39.000Z","ept":0.005,"lat":36.623092063,"lon":127.341995638,"alt":-530.169,"epv":2187.990,"track":81.6275,"speed":0.356,"climb":-0.003,"eps":1.28,"epc":4382.88}
{"class":"TPV","device":"/dev/ttyAMA0","mode":3,"time":"2018-10-01T07:53:40.000Z","ept":0.005,"lat":36.623073632,"lon":127.342155494,"alt":-514.963,"epv":2181.090,"track":99.1025,"speed":1.083,"climb":-0.004,"eps":1.38,"epc":4369.08}
{"class":"TPV","device":"/dev/ttyAMA0","mode":3,"time":"2018-10-01T07:53:41.000Z","ept":0.005,"lat":36.623063993,"lon":127.342252049,"alt":-505.746,"epv":2174.190,"track":72.9277,"speed":0.168,"climb":0.001,"eps":1.58,"epc":4355.28}
{"class":"TPV","device":"/dev/ttyAMA0","mode":3,"time":"2018-10-01T07:53:42.000Z","ept":0.005,"lat":36.623055140,"lon":127.342329261,"alt":-497.686,"epv":2167.520,"track":77.4090,"speed":0.115,"climb":-0.000,"eps":1.42,"epc":4341.71}
{"class":"TPV","device":"/dev/ttyAMA0","mode":3,"time":"2018-10-01T07:53:43.000Z","ept":0.005,"lat":36.623055227,"lon":127.342319453,"alt":-498.403,"epv":2160.850,"track":84.8003,"speed":0.305,"climb":-0.004,"eps":1.78,"epc":4328.37}
{"class":"TPV","device":"/dev/ttyAMA0","mode":3,"time":"2018-10-01T07:53:44.000Z","ept":0.005,"lat":36.623054642,"lon":127.342325708,"alt":-497.762,"epv":2154.180,"track":89.9624,"speed":0.214,"climb":-0.000,"eps":1.35,"epc":4315.03}
{"class":"TPV","device":"/dev/ttyAMA0","mode":3,"time":"2018-10-01T07:53:45.000Z","ept":0.005,"lat":36.623050170,"lon":127.342365108,"alt":-493.575,"epv":2147.510,"track":85.5648,"speed":0.185,"climb":-0.002,"eps":1.44,"epc":4301.69}
{"class":"TPV","device":"/dev/ttyAMA0","mode":3,"time":"2018-10-01T07:53:46.000Z","ept":0.005,"lat":36.623049907,"lon":127.342372733,"alt":-492.697,"epv":2140.840,"track":81.4722,"speed":0.342,"climb":-0.001,"eps":1.32,"epc":4288.35}
{"class":"SKY","device":"/dev/ttyAMA0","vdop":93.08,"tdop":97.77,"hdop":79.96,"gdop":99.99,"pdop":99.99,"satellites":[{"PRN":2,"el":15,"az":159,"ss":20,"used":false},{"PRN":13,"el":62,"az":33,"ss":28,"used":true},{"PRN":194,"el":37,"az":148,"ss":28,"used":true},{"PRN":71,"el":41,"az":45,"ss":29,"used":true},{"PRN":73,"el":36,"az":77,"ss":19,"used":false},{"PRN":74,"el":27,"az":137,"ss":31,"used":true},{"PRN":88,"el":18,"az":328,"ss":17,"used":false}]}
{"class":"TPV","device":"/dev/ttyAMA0","mode":3,"time":"2018-10-01T07:53:47.000Z","ept":0.005,"lat":36.623054096,"lon":127.342338013,"alt":-496.072,"epv":2134.170,"track":85.5842,"speed":0.327,"climb":-0.000,"eps":1.31,"epc":4275.01}
{"class":"TPV","device":"/dev/ttyAMA0","mode":3,"time":"2018-10-01T07:53:48.000Z","ept":0.005,"lat":36.623050046,"lon":127.342372139,"alt":-492.517,"epv":2127.730,"track":89.5796,"speed":0.292,"climb":-0.003,"eps":1.28,"epc":4261.90}
{"class":"TPV","device":"/dev/ttyAMA0","mode":3,"time":"2018-10-01T07:53:49.000Z","ept":0.005,"lat":36.623046340,"lon":127.342399576,"alt":-489.784,"epv":2121.060,"track":95.9937,"speed":0.362,"climb":0.001,"eps":1.27,"epc":4248.79}
{"class":"TPV","device":"/dev/ttyAMA0","mode":3,"time":"2018-10-01T07:53:50.000Z","ept":0.005,"lat":36.623048922,"lon":127.342373587,"alt":-492.533,"epv":2114.620,"track":87.1639,"speed":0.449,"climb":0.004,"eps":1.31,"epc":4235.68}
{"class":"TPV","device":"/dev/ttyAMA0","mode":3,"time":"2018-10-01T07:53:51.000Z","ept":0.005,"lat":36.623050817,"lon":127.342360233,"alt":-494.124,"epv":2108.410,"track":79.5565,"speed":0.157,"climb":-0.005,"eps":1.31,"epc":4223.03}
{"class":"TPV","device":"/dev/ttyAMA0","mode":3,"time":"2018-10-01T07:53:52.000Z","ept":0.005,"lat":36.623060407,"lon":127.342269095,"alt":-503.417,"epv":2101.970,"track":263.6321,"speed":0.362,"climb":0.004,"eps":1.30,"epc":4210.38}
{"class":"TPV","device":"/dev/ttyAMA0","mode":3,"time":"2018-10-01T07:53:53.000Z","ept":0.005,"lat":36.623050989,"lon":127.342341812,"alt":-495.691,"epv":2095.530,"track":258.0114,"speed":0.186,"climb":0.002,"eps":1.29,"epc":4197.50}
{"class":"TPV","device":"/dev/ttyAMA0","mode":3,"time":"2018-10-01T07:53:54.000Z","ept":0.005,"lat":36.623055463,"lon":127.342297638,"alt":-500.332,"epv":2089.320,"track":88.5300,"speed":0.078,"climb":-0.003,"eps":1.29,"epc":4184.85}
{"class":"TPV","device":"/dev/ttyAMA0","mode":3,"time":"2018-10-01T07:53:55.000Z","ept":0.005,"lat":36.623057084,"lon":127.342277011,"alt":-502.485,"epv":2083.110,"track":90.2818,"speed":0.250,"climb":0.002,"eps":1.30,"epc":4172.43}
{"class":"TPV","device":"/dev/ttyAMA0","mode":3,"time":"2018-10-01T07:53:56.000Z","ept":0.005,"lat":36.623059787,"lon":127.342245198,"alt":-505.688,"epv":2076.900,"track":87.6789,"speed":0.334,"climb":-0.001,"eps":1.33,"epc":4160.01}
{"class":"SKY","device":"/dev/ttyAMA0","vdop":90.30,"tdop":94.78,"hdop":77.32,"gdop":99.99,"pdop":99.99,"satellites":[{"PRN":2,"el":15,"az":159,"ss":21,"used":false},{"PRN":13,"el":62,"az":33,"ss":25,"used":true},{"PRN":194,"el":37,"az":148,"ss":28,"used":true},{"PRN":71,"el":41,"az":45,"ss":28,"used":true},{"PRN":73,"el":36,"az":77,"ss":20,"used":false},{"PRN":74,"el":27,"az":137,"ss":30,"used":true},{"PRN":88,"el":18,"az":328,"ss":19,"used":false}]}
{"class":"TPV","device":"/dev/ttyAMA0","mode":3,"time":"2018-10-01T07:53:57.000Z","ept":0.005,"lat":36.623057922,"lon":127.342265367,"alt":-504.002,"epv":2070.690,"track":83.5602,"speed":0.348,"climb":-0.002,"eps":1.34,"epc":4147.59}
{"class":"TPV","device":"/dev/ttyAMA0","mode":3,"time":"2018-10-01T07:53:58.000Z","ept":0.005,"lat":36.623064436,"lon":127.342206652,"alt":-510.807,"epv":2064.480,"track":98.7458,"speed":0.592,"climb":0.004,"eps":1.46,"epc":4135.17}
{"class":"TPV","device":"/dev/ttyAMA0","mode":3,"time":"2018-10-01T07:53:59.000Z","ept":0.005,"lat":36.623059129,"lon":127.342249672,"alt":-506.663,"epv":2058.500,"track":83.5602,"speed":0.348,"climb":-0.002,"eps":1.38,"epc":4122.98}
{"class":"TPV","device":"/dev/ttyAMA0","mode":3,"time":"2018-10-01T07:54:00.000Z","ept":0.005,"lat":36.623054416,"lon":127.342280250,"alt":-503.260,"epv":2052.290,"track":89.9201,"speed":0.378,"climb":-0.001,"eps":1.34,"epc":4110.79}
{"class":"TPV","device":"/dev/ttyAMA0","mode":3,"time":"2018-10-01T07:54:01.000Z","ept":0.005,"lat":36.623047761,"lon":127.342332082,"alt":-497.741,"epv":2046.310,"track":254.0711,"speed":0.225,"climb":-0.001,"eps":1.33,"epc":4098.60}
{"class":"TPV","device":"/dev/ttyAMA0","mode":3,"time":"2018-10-01T07:54:02.000Z","ept":0.005,"lat":36.623042003,"lon":127.342374956,"alt":-493.160,"epv":2040.330,"track":258.1212,"speed":0.315,"climb":0.003,"eps":1.34,"epc":4086.64}
{"class":"TPV","device":"/dev/ttyAMA0","mode":3,"time":"2018-10-01T07:54:03.000Z","ept":0.005,"lat":36.623032349,"lon":127.342447578,"alt":-485.399,"epv":2034.350,"track":240.1337,"speed":0.095,"climb":-0.004,"eps":1.24,"epc":4074.68}
{"class":"TPV","device":"/dev/ttyAMA0","mode":3,"time":"2018-10-01T07:54:04.000Z","ept":0.005,"lat":36.623024845,"lon":127.342512708,"alt":-478.647,"epv":2028.370,"track":89.2141,"speed":0.064,"climb":-0.001,"eps":1.31,"epc":4062.72}
{"class":"TPV","device":"/dev/ttyAMA0","mode":3,"time":"2018-10-01T07:54:05.000Z","ept":0.005,"lat":36.623026252,"lon":127.342497242,"alt":-479.846,"epv":2022.620,"track":93.4753,"speed":0.208,"climb":0.000,"eps":1.30,"epc":4050.99}
{"class":"TPV","device":"/dev/ttyAMA0","mode":3,"time":"2018-10-01T07:54:06.000Z","ept":0.005,"lat":36.623026400,"lon":127.342495729,"alt":-479.633,"epv":2016.870,"track":84.6619,"speed":0.249,"climb":0.002,"eps":1.32,"epc":4039.49}
{"class":"SKY","device":"/dev/ttyAMA0","vdop":87.69,"tdop":91.98,"hdop":74.84,"gdop":99.99,"pdop":99.99,"satellites":[{"PRN":2,"el":15,"az":159,"ss":22,"used":false},{"PRN":13,"el":62,"az":33,"ss":26,"used":true},{"PRN":194,"el":37,"az":148,"ss":28,"used":true},{"PRN":71,"el":41,"az":45,"ss":29,"used":true},{"PRN":73,"el":36,"az":77,"ss":20,"used":false},{"PRN":74,"el":27,"az":137,"ss":30,"used":true},{"PRN":88,"el":18,"az":328,"ss":17,"used":false}]}
{"class":"TPV","device":"/dev/ttyAMA0","mode":3,"time":"2018-10-01T07:54:07.000Z","ept":0.005,"lat":36.623021011,"lon":127.342545037,"alt":-474.051,"epv":2010.890,"track":83.0918,"speed":0.185,"climb":0.004,"eps":1.34,"epc":4027.76}
{"class":"TPV","device":"/dev/ttyAMA0","mode":3,"time":"2018-10-01T07:54:08.000Z","ept":0.005,"lat":36.623013793,"lon":127.342614326,"alt":-466.671,"epv":2005.140,"track":81.3035,"speed":0.164,"climb":0.000,"eps":1.34,"epc":4016.03}
{"class":"TPV","device":"/dev/ttyAMA0","mode":3,"time":"2018-10-01T07:54:09.000Z","ept":0.005,"lat":36.623007534,"lon":127.342675212,"alt":-460.490,"epv":1999.390,"track":89.9626,"speed":0.214,"climb":-0.000,"eps":1.32,"epc":4004.53}
{"class":"TPV","device":"/dev/ttyAMA0","mode":3,"time":"2018-10-01T07:54:10.000Z","ept":0.005,"lat":36.623000409,"lon":127.342741993,"alt":-453.660,"epv":1993.870,"track":91.4933,"speed":0.436,"climb":-0.001,"eps":1.39,"epc":3993.26}
{"class":"TPV","device":"/dev/ttyAMA0","mode":3,"time":"2018-10-01T07:54:11.000Z","ept":0.005,"lat":36.622991749,"lon":127.342822401,"alt":-445.578,"epv":1988.120,"track":205.4107,"speed":0.028,"climb":0.001,"eps":0.64,"epc":3981.99}
{"class":"TPV","device":"/dev/ttyAMA0","mode":3,"time":"2018-10-01T07:54:12.000Z","ept":0.005,"lat":36.622980078,"lon":127.342930072,"alt":-434.784,"epv":1982.370,"track":284.5773,"speed":0.151,"climb":-0.001,"eps":1.26,"epc":3970.49}
{"class":"TPV","device":"/dev/ttyAMA0","mode":3,"time":"2018-10-01T07:54:13.000Z","ept":0.005,"lat":36.622964816,"lon":127.343060538,"alt":-421.392,"epv":1976.850,"track":205.4108,"speed":0.028,"climb":0.001,"eps":0.79,"epc":3959.22}
{"class":"TPV","device":"/dev/ttyAMA0","mode":3,"time":"2018-10-01T07:54:14.000Z","ept":0.005,"lat":36.622941363,"lon":127.343273979,"alt":-399.535,"epv":1971.330,"track":96.4789,"speed":0.022,"climb":0.003,"eps":1.16,"epc":3948.18}
{"class":"TPV","device":"/dev/ttyAMA0","mode":3,"time":"2018-10-01T07:54:15.000Z","ept":0.005,"lat":36.622923830,"lon":127.343444836,"alt":-382.535,"epv":1965.810,"track":90.2825,"speed":0.100,"climb":0.001,"eps":1.25,"epc":3937.14}
{"class":"TPV","device":"/dev/ttyAMA0","mode":3,"time":"2018-10-01T07:54:16.000Z","ept":0.005,"lat":36.622908284,"lon":127.343597022,"alt":-367.492,"epv":1960.290,"track":93.1197,"speed":0.186,"climb":-0.003,"eps":1.25,"epc":3926.10}
{"class":"SKY","device":"/dev/ttyAMA0","vdop":85.23,"tdop":89.34,"hdop":72.52,"gdop":99.99,"pdop":99.99,"satellites":[{"PRN":2,"el":15,"az":159,"ss":23,"used":false},{"PRN":13,"el":62,"az":33,"ss":28,"used":true},{"PRN":194,"el":37,"az":148,"ss":29,"used":true},{"PRN":71,"el":41,"az":45,"ss":29,"used":true},{"PRN":73,"el":36,"az":77,"ss":23,"used":false},{"PRN":74,"el":28,"az":136,"ss":33,"used":true},{"PRN":88,"el":18,"az":328,"ss":18,"used":false}]}
{"class":"TPV","device":"/dev/ttyAMA0","mode":3,"time":"2018-10-01T07:54:17.000Z","ept":0.005,"lat":36.622893318,"lon":127.343737682,"alt":-353.490,"epv":1955.000,"track":94.3044,"speed":0.217,"climb":0.005,"eps":1.24,"epc":3915.29}
{"class":"TPV","device":"/dev/ttyAMA0","mode":3,"time":"2018-10-01T07:54:18.000Z","ept":0.005,"lat":36.622881009,"lon":127.343850161,"alt":-342.198,"epv":1949.480,"track":85.5781,"speed":0.171,"climb":-0.001,"eps":1.27,"epc":3904.48}
{"class":"TPV","device":"/dev/ttyAMA0","mode":3,"time":"2018-10-01T07:54:19.000Z","ept":0.005,"lat":36.622869283,"lon":127.343964013,"alt":-330.977,"epv":1944.190,"track":94.7279,"speed":0.181,"climb":0.003,"eps":1.26,"epc":3893.67}
{"class":"TPV","device":"/dev/ttyAMA0","mode":3,"time":"2018-10-01T07:54:20.000Z","ept":0.005,"lat":36.622859092,"lon":127.344062557,"alt":-321.275,"epv":1938.670,"track":84.1865,"speed":0.328,"climb":0.006,"eps":1.29,"epc":3882.86}
{"class":"TPV","device":"/dev/ttyAMA0","mode":3,"time":"2018-10-01T07:54:21.000Z","ept":0.005,"lat":36.622848933,"lon":127.344163865,"alt":-311.461,"epv":1933.380,"track":205.4115,"speed":0.028,"climb":0.001,"eps":0.71,"epc":3872.05}
{"class":"TPV","device":"/dev/ttyAMA0","mode":3,"time":"2018-10-01T07:54:22.000Z","ept":0.005,"lat":36.622839093,"lon":127.344260430,"alt":-302.180,"epv":1928.090,"track":263.2565,"speed":0.399,"climb":-0.004,"eps":1.28,"epc":3861.47}
{"class":"TPV","device":"/dev/ttyAMA0","mode":3,"time":"2018-10-01T07:54:23.000Z","ept":0.005,"lat":36.622830422,"lon":127.344341138,"alt":-293.979,"epv":1922.800,"track":269.2152,"speed":0.192,"climb":0.004,"eps":1.28,"epc":3850.89}
{"class":"TPV","device":"/dev/ttyAMA0","mode":3,"time":"2018-10-01T07:54:24.000Z","ept":0.005,"lat":36.622820377,"lon":127.344440121,"alt":-284.165,"epv":1917.740,"track":25.4117,"speed":0.014,"climb":-0.000,"eps":0.68,"epc":3840.54}
{"class":"TPV","device":"/dev/ttyAMA0","mode":3,"time":"2018-10-01T07:54:25.000Z","ept":0.005,"lat":36.622813658,"lon":127.344502444,"alt":-278.150,"epv":1912.450,"track":96.3997,"speed":0.087,"climb":-0.004,"eps":1.24,"epc":3830.19}
{"class":"TPV","device":"/dev/ttyAMA0","mode":3,"time":"2018-10-01T07:54:26.000Z","ept":0.005,"lat":36.622805044,"lon":127.344580896,"alt":-270.293,"epv":1907.160,"track":89.8664,"speed":0.164,"climb":-0.001,"eps":1.27,"epc":3819.61}
{"class":"SKY","device":"/dev/ttyAMA0","vdop":82.92,"tdop":86.86,"hdop":70.32,"gdop":99.99,"pdop":99.99,"satellites":[{"PRN":2,"el":15,"az":159,"ss":22,"used":false},{"PRN":13,"el":62,"az":33,"ss":28,"used":true},{"PRN":194,"el":37,"az":148,"ss":29,"used":true},{"PRN":71,"el":41,"az":45,"ss":29,"used":true},{"PRN":73,"el":36,"az":77,"ss":22,"used":false},{"PRN":74,"el":28,"az":136,"ss":32,"used":true},{"PRN":88,"el":18,"az":328,"ss":18,"used":false}]}
{"class":"TPV","device":"/dev/ttyAMA0","mode":3,"time":"2018-10-01T07:54:27.000Z","ept":0.005,"lat":36.622796219,"lon":127.344649507,"alt":-263.008,"epv":1902.100,"track":88.9563,"speed":0.206,"climb":-0.005,"eps":1.52,"epc":3809.26}
{"class":"TPV","device":"/dev/ttyAMA0","mode":3,"time":"2018-10-01T07:54:28.000Z","ept":0.005,"lat":36.622791905,"lon":127.344678052,"alt":-259.934,"epv":1897.040,"track":145.6776,"speed":0.028,"climb":-0.002,"eps":0.68,"epc":3799.14}
{"class":"TPV","device":"/dev/ttyAMA0","mode":3,"time":"2018-10-01T07:54:29.000Z","ept":0.005,"lat":36.622780138,"lon":127.344784425,"alt":-249.226,"epv":1891.980,"track":95.1607,"speed":0.122,"climb":-0.002,"eps":1.28,"epc":3789.02}
{"class":"TPV","device":"/dev/ttyAMA0","mode":3,"time":"2018-10-01T07:54:30.000Z","ept":0.005,"lat":36.622776076,"lon":127.344830508,"alt":-245.015,"epv":1886.920,"track":91.4327,"speed":0.400,"climb":-0.003,"eps":1.38,"epc":3778.90}
{"class":"TPV","device":"/dev/ttyAMA0","mode":3,"time":"2018-10-01T07:54:31.000Z","ept":0.005,"lat":36.622775276,"lon":127.344846366,"alt":-243.638,"epv":1881.860,"track":335.8568,"speed":0.043,"climb":-0.003,"eps":0.72,"epc":3768.78}
{"class":"TPV","device":"/dev/ttyAMA0","mode":3,"time":"2018-10-01T07:54:32.000Z","ept":0.005,"lat":36.622773716,"lon":127.344869105,"alt":-241.645,"epv":1876.800,"track":271.8865,"speed":0.372,"climb":0.000,"eps":1.42,"epc":3758.66}
{"class":"TPV","device":"/dev/ttyAMA0","mode":3,"time":"2018-10-01T07:54:33.000Z","ept":0.005,"lat":36.622777265,"lon":127.344839077,"alt":-244.690,"epv":1871.740,"track":258.0129,"speed":0.186,"climb":0.002,"eps":1.38,"epc":3748.54}
{"class":"TPV","device":"/dev/ttyAMA0","mode":3,"time":"2018-10-01T07:54:34.000Z","ept":0.005,"lat":36.622781709,"lon":127.344795579,"alt":-249.041,"epv":1866.910,"track":216.2557,"speed":0.065,"climb":0.003,"eps":0.94,"epc":3738.65}
{"class":"TPV","device":"/dev/ttyAMA0","mode":3,"time":"2018-10-01T07:54:35.000Z","ept":0.005,"lat":36.622787232,"lon":127.344746306,"alt":-254.123,"epv":1861.850,"track":44.4443,"speed":0.037,"climb":-0.002,"eps":1.18,"epc":3728.76}
{"class":"TPV","device":"/dev/ttyAMA0","mode":3,"time":"2018-10-01T07:54:36.000Z","ept":0.005,"lat":36.622791040,"lon":127.344713447,"alt":-257.575,"epv":1857.020,"track":96.4269,"speed":0.131,"climb":0.003,"eps":1.46,"epc":3718.87}
{"class":"SKY","device":"/dev/ttyAMA0","vdop":80.74,"tdop":84.51,"hdop":68.25,"gdop":99.99,"pdop":99.99,"satellites":[{"PRN":2,"el":14,"az":159,"ss":21,"used":false},{"PRN":13,"el":62,"az":33,"ss":26,"used":true},{"PRN":194,"el":37,"az":148,"ss":29,"used":true},{"PRN":71,"el":41,"az":45,"ss":28,"used":true},{"PRN":73,"el":36,"az":77,"ss":20,"used":false},{"PRN":74,"el":28,"az":136,"ss":31,"used":true},{"PRN":88,"el":18,"az":328,"ss":19,"used":false}]}
{"class":"TPV","device":"/dev/ttyAMA0","mode":3,"time":"2018-10-01T07:54:37.000Z","ept":0.005,"lat":36.622791892,"lon":127.344710336,"alt":-257.769,"epv":1852.190,"track":73.5686,"speed":0.117,"climb":0.006,"eps":1.43,"epc":3709.21}
{"class":"TPV","device":"/dev/ttyAMA0","mode":3,"time":"2018-10-01T07:54:38.000Z","ept":0.005,"lat":36.622791803,"lon":127.344713536,"alt":-257.505,"epv":1847.360,"track":88.5314,"speed":0.078,"climb":-0.003,"eps":1.39,"epc":3699.55}
{"class":"TPV","device":"/dev/ttyAMA0","mode":3,"time":"2018-10-01T07:54:39.000Z","ept":0.005,"lat":36.622793999,"lon":127.344696707,"alt":-259.240,"epv":1842.530,"track":205.4119,"speed":0.014,"climb":0.000,"eps":0.47,"epc":3689.89}
{"class":"TPV","device":"/dev/ttyAMA0","mode":3,"time":"2018-10-01T07:54:40.000Z","ept":0.005,"lat":36.622799637,"lon":127.344651859,"alt":-263.686,"epv":1837.700,"track":81.8166,"speed":0.127,"climb":-0.008,"eps":1.35,"epc":3680.23}
{"class":"TPV","device":"/dev/ttyAMA0","mode":3,"time":"2018-10-01T07:54:41.000Z","ept":0.005,"lat":36.622802325,"lon":127.344637528,"alt":-265.294,"epv":1832.870,"track":286.5026,"speed":0.137,"climb":-0.002,"eps":1.26,"epc":3670.57}
{"class":"TPV","device":"/dev/ttyAMA0","mode":3,"time":"2018-10-01T07:54:42.000Z","ept":0.005,"lat":36.622803847,"lon":127.344637319,"alt":-265.672,"epv":1828.040,"track":270.1359,"speed":0.464,"climb":-0.001,"eps":1.34,"epc":3660.91}
{"class":"TPV","device":"/dev/ttyAMA0","mode":3,"time":"2018-10-01T07:54:43.000Z","ept":0.005,"lat":36.622807170,"lon":127.344617562,"alt":-267.627,"epv":1823.440,"track":269.8664,"speed":0.492,"climb":0.002,"eps":1.38,"epc":3651.48}
{"class":"TPV","device":"/dev/ttyAMA0","mode":3,"time":"2018-10-01T07:54:44.000Z","ept":0.005,"lat":36.622803980,"lon":127.344654854,"alt":-264.217,"epv":1818.610,"track":269.8664,"speed":0.164,"climb":0.001,"eps":1.37,"epc":3642.05}
{"class":"TPV","device":"/dev/ttyAMA0","mode":3,"time":"2018-10-01T07:54:45.000Z","ept":0.005,"lat":36.622801900,"lon":127.344674748,"alt":-262.180,"epv":1814.010,"track":258.2813,"speed":0.129,"climb":0.002,"eps":1.33,"epc":3632.62}
{"class":"TPV","device":"/dev/ttyAMA0","mode":3,"time":"2018-10-01T07:54:46.000Z","ept":0.005,"lat":36.622799989,"lon":127.344695373,"alt":-260.051,"epv":1809.410,"track":353.4418,"speed":0.016,"climb":-0.005,"eps":0.47,"epc":3623.42}
{"class":"SKY","device":"/dev/ttyAMA0","vdop":78.67,"tdop":82.29,"hdop":66.29,"gdop":99.99,"pdop":99.99,"satellites":[{"PRN":2,"el":14,"az":159,"ss":22,"used":false},{"PRN":5,"el":45,"az":91,"ss":29,"used":false},{"PRN":13,"el":62,"az":33,"ss":26,"used":true},{"PRN":194,"el":37,"az":148,"ss":29,"used":true},{"PRN":71,"el":41,"az":45,"ss":29,"used":true},{"PRN":73,"el":36,"az":77,"ss":24,"used":false},{"PRN":74,"el":28,"az":136,"ss":30,"used":true},{"PRN":88,"el":18,"az":328,"ss":18,"used":false}]}
{"class":"TPV","device":"/dev/ttyAMA0","mode":3,"time":"2018-10-01T07:54:47.000Z","ept":0.005,"lat":36.622799011,"lon":127.344695406,"alt":-259.972,"epv":1804.810,"track":109.6546,"speed":0.140,"climb":-0.004,"eps":1.36,"epc":3614.22}
{"class":"TPV","device":"/dev/ttyAMA0","mode":3,"time":"2018-10-01T07:54:48.000Z","ept":0.005,"lat":36.622797551,"lon":127.344689388,"alt":-260.056,"epv":1800.210,"track":249.6065,"speed":0.207,"climb":-0.003,"eps":1.44,"epc":3605.02}
{"class":"TPV","device":"/dev/ttyAMA0","mode":3,"time":"2018-10-01T07:54:49.000Z","ept":0.005,"lat":36.622797354,"lon":127.344688760,"alt":-259.138,"epv":1795.610,"track":289.6287,"speed":0.702,"climb":0.001,"eps":1.71,"epc":3595.82}
{"class":"TPV","device":"/dev/ttyAMA0","mode":3,"time":"2018-10-01T07:54:50.000Z","ept":0.005,"lat":36.622793689,"lon":127.344707844,"alt":-256.579,"epv":1791.010,"track":266.0997,"speed":0.477,"climb":-0.007,"eps":1.56,"epc":3586.62}
{"class":"TPV","device":"/dev/ttyAMA0","mode":3,"time":"2018-10-01T07:54:51.000Z","ept":0.005,"lat":36.622796376,"lon":127.344711111,"alt":-253.980,"epv":1786.640,"track":291.4519,"speed":1.947,"climb":-0.003,"eps":1.83,"epc":3577.65}
{"class":"TPV","device":"/dev/ttyAMA0","mode":3,"time":"2018-10-01T07:54:52.000Z","ept":0.005,"lat":36.622790104,"lon":127.344722251,"alt":-250.948,"epv":1782.040,"track":256.2251,"speed":1.456,"climb":-0.003,"eps":2.15,"epc":3568.68}
{"class":"TPV","device":"/dev/ttyAMA0","mode":3,"time":"2018-10-01T07:54:53.000Z","ept":0.005,"lat":36.622784142,"lon":127.344775638,"alt":-245.599,"epv":1777.670,"track":266.2955,"speed":1.018,"climb":-0.012,"eps":1.51,"epc":3559.71}
{"class":"TPV","device":"/dev/ttyAMA0","mode":3,"time":"2018-10-01T07:54:54.000Z","ept":0.005,"lat":36.622777946,"lon":127.344822524,"alt":-240.634,"epv":1773.070,"track":261.5705,"speed":0.813,"climb":-0.007,"eps":1.45,"epc":3550.74}
{"class":"TPV","device":"/dev/ttyAMA0","mode":3,"time":"2018-10-01T07:54:55.000Z","ept":0.005,"lat":36.622771846,"lon":127.344857333,"alt":-235.952,"epv":1768.700,"track":271.8715,"speed":0.708,"climb":0.002,"eps":1.52,"epc":3541.77}
{"class":"TPV","device":"/dev/ttyAMA0","mode":3,"time":"2018-10-01T07:54:56.000Z","ept":0.005,"lat":36.622762724,"lon":127.344922737,"alt":-228.572,"epv":1764.330,"track":264.1193,"speed":0.477,"climb":-0.001,"eps":1.68,"epc":3533.03}
{"class":"SKY","device":"/dev/ttyAMA0","vdop":76.71,"tdop":80.18,"hdop":64.43,"gdop":99.99,"pdop":99.99,"satellites":[{"PRN":2,"el":14,"az":159,"ss":21,"used":false},{"PRN":5,"el":45,"az":91,"ss":25,"used":false},{"PRN":13,"el":62,"az":33,"ss":23,"used":true},{"PRN":194,"el":37,"az":148,"ss":26,"used":true},{"PRN":71,"el":41,"az":45,"ss":28,"used":true},{"PRN":73,"el":36,"az":77,"ss":25,"used":false},{"PRN":74,"el":28,"az":136,"ss":31,"used":true},{"PRN":88,"el":18,"az":328,"ss":18,"used":false}]}
{"class":"TPV","device":"/dev/ttyAMA0","mode":3,"time":"2018-10-01T07:54:57.000Z","ept":0.005,"lat":36.622757646,"lon":127.344960862,"alt":-224.495,"epv":1759.960,"track":263.3064,"speed":0.306,"climb":-0.002,"eps":1.69,"epc":3524.29}
{"class":"TPV","device":"/dev/ttyAMA0","mode":3,"time":"2018-10-01T07:54:58.000Z","ept":0.005,"lat":36.622757543,"lon":127.344951864,"alt":-225.284,"epv":1755.590,"track":266.9897,"speed":0.327,"climb":0.006,"eps":1.73,"epc":3515.55}
{"class":"TPV","device":"/dev/ttyAMA0","mode":3,"time":"2018-10-01T07:54:59.000Z","ept":0.005,"lat":36.622755693,"lon":127.344958514,"alt":-224.354,"epv":1751.220,"track":262.1306,"speed":0.271,"climb":-0.000,"eps":1.68,"epc":3506.81}
{"class":"TPV","device":"/dev/ttyAMA0","mode":3,"time":"2018-10-01T07:55:00.000Z","ept":0.005,"lat":36.622754627,"lon":127.344971856,"alt":-222.837,"epv":1747.080,"track":301.2484,"speed":0.210,"climb":0.004,"eps":1.66,"epc":3498.30}
{"class":"TPV","device":"/dev/ttyAMA0","mode":3,"time":"2018-10-01T07:55:01.000Z","ept":0.005,"lat":36.622756137,"lon":127.344963884,"alt":-223.767,"epv":1742.710,"track":271.0784,"speed":0.086,"climb":-0.002,"eps":1.61,"epc":3489.79}
{"class":"TPV","device":"/dev/ttyAMA0","mode":3,"time":"2018-10-01T07:55:02.000Z","ept":0.005,"lat":36.622754706,"lon":127.344980154,"alt":-222.564,"epv":1738.570,"track":263.5236,"speed":0.228,"climb":0.001,"eps":1.47,"epc":3481.28}
{"class":"TPV","device":"/dev/ttyAMA0","mode":3,"time":"2018-10-01T07:55:03.000Z","ept":0.005,"lat":36.622751262,"lon":127.345011124,"alt":-219.854,"epv":1734.200,"track":267.4780,"speed":0.499,"climb":-0.004,"eps":1.39,"epc":3472.77}
{"class":"TPV","device":"/dev/ttyAMA0","mode":3,"time":"2018-10-01T07:55:04.000Z","ept":0.005,"lat":36.622750841,"lon":127.345010261,"alt":-220.009,"epv":1730.060,"track":267.4214,"speed":0.256,"climb":-0.001,"eps":1.35,"epc":3464.26}
{"class":"TPV","device":"/dev/ttyAMA0","mode":3,"time":"2018-10-01T07:55:05.000Z","ept":0.005,"lat":36.622749908,"lon":127.345014116,"alt":-219.602,"epv":1725.920,"track":85.5465,"speed":0.213,"climb":-0.005,"eps":1.34,"epc":3455.98}
{"class":"TPV","device":"/dev/ttyAMA0","mode":3,"time":"2018-10-01T07:55:06.000Z","ept":0.005,"lat":36.622745183,"lon":127.345050295,"alt":-216.382,"epv":1721.550,"track":93.4768,"speed":0.625,"climb":0.001,"eps":1.39,"epc":3447.47}
{"class":"SKY","device":"/dev/ttyAMA0","vdop":74.85,"tdop":78.19,"hdop":62.67,"gdop":99.99,"pdop":97.63,"satellites":[{"PRN":2,"el":14,"az":159,"ss":21,"used":false},{"PRN":5,"el":45,"az":91,"ss":26,"used":false},{"PRN":13,"el":62,"az":33,"ss":25,"used":true},{"PRN":194,"el":37,"az":148,"ss":27,"used":true},{"PRN":71,"el":41,"az":46,"ss":28,"used":true},{"PRN":73,"el":36,"az":76,"ss":27,"used":false},{"PRN":74,"el":28,"az":136,"ss":31,"used":true},{"PRN":88,"el":18,"az":328,"ss":19,"used":false}]}
{"class":"TPV","device":"/dev/ttyAMA0","mode":3,"time":"2018-10-01T07:55:07.000Z","ept":0.005,"lat":36.622741336,"lon":127.345083052,"alt":-213.679,"epv":1717.410,"track":90.2835,"speed":0.650,"climb":0.004,"eps":1.49,"epc":3438.96}
{"class":"TPV","device":"/dev/ttyAMA0","mode":3,"time":"2018-10-01T07:55:08.000Z","ept":0.005,"lat":36.622736971,"lon":127.345120009,"alt":-210.378,"epv":1713.270,"track":87.2232,"speed":0.284,"climb":-0.002,"eps":1.54,"epc":3430.68}
{"class":"TPV","device":"/dev/ttyAMA0","mode":3,"time":"2018-10-01T07:55:09.000Z","ept":0.005,"lat":36.622736278,"lon":127.345126329,"alt":-210.024,"epv":1709.360,"track":269.6839,"speed":0.114,"climb":0.001,"eps":1.60,"epc":3422.63}
{"class":"TPV","device":"/dev/ttyAMA0","mode":3,"time":"2018-10-01T07:55:10.000Z","ept":0.005,"lat":36.622736461,"lon":127.345125155,"alt":-210.453,"epv":1705.220,"track":274.4842,"speed":0.317,"climb":0.000,"eps":1.62,"epc":3414.58}
{"class":"TPV","device":"/dev/ttyAMA0","mode":3,"time":"2018-10-01T07:55:11.000Z","ept":0.005,"lat":36.622732963,"lon":127.345148294,"alt":-208.288,"epv":1701.080,"track":258.9824,"speed":0.214,"climb":0.005,"eps":1.62,"epc":3406.30}
{"class":"TPV","device":"/dev/ttyAMA0","mode":3,"time":"2018-10-01T07:55:12.000Z","ept":0.005,"lat":36.622727063,"lon":127.345194313,"alt":-203.686,"epv":1696.940,"track":263.8196,"speed":0.135,"climb":0.003,"eps":1.64,"epc":3398.02}
{"class":"TPV","device":"/dev/ttyAMA0","mode":3,"time":"2018-10-01T07:55:13.000Z","ept":0.005,"lat":36.622721573,"lon":127.345245527,"alt":-198.843,"epv":1693.030,"track":74.8345,"speed":0.044,"climb":0.001,"eps":1.60,"epc":3389.97}
{"class":"TPV","device":"/dev/ttyAMA0","mode":3,"time":"2018-10-01T07:55:14.000Z","ept":0.005,"lat":36.622714194,"lon":127.345311082,"alt":-192.780,"epv":1689.120,"track":155.8571,"speed":0.043,"climb":0.003,"eps":0.87,"epc":3382.15}
{"class":"TPV","device":"/dev/ttyAMA0","mode":3,"time":"2018-10-01T07:55:15.000Z","ept":0.005,"lat":36.622711622,"lon":127.345333503,"alt":-190.803,"epv":1684.980,"track":104.6364,"speed":0.037,"climb":-0.004,"eps":1.56,"epc":3374.10}
{"class":"TPV","device":"/dev/ttyAMA0","mode":3,"time":"2018-10-01T07:55:16.000Z","ept":0.005,"lat":36.622705706,"lon":127.345388791,"alt":-185.461,"epv":1681.070,"track":93.6283,"speed":0.439,"climb":0.004,"eps":1.64,"epc":3366.05}
{"class":"SKY","device":"/dev/ttyAMA0","vdop":73.09,"tdop":76.29,"hdop":61.00,"gdop":99.99,"pdop":95.20,"satellites":[{"PRN":2,"el":14,"az":159,"ss":21,"used":false},{"PRN":5,"el":45,"az":91,"ss":22,"used":false},{"PRN":13,"el":62,"az":33,"ss":25,"used":true},{"PRN":194,"el":37,"az":148,"ss":26,"used":true},{"PRN":71,"el":41,"az":46,"ss":26,"used":true},{"PRN":73,"el":36,"az":76,"ss":25,"used":false},{"PRN":74,"el":28,"az":136,"ss":32,"used":true},{"PRN":88,"el":18,"az":328,"ss":19,"used":false}]}
{"class":"TPV","device":"/dev/ttyAMA0","mode":3,"time":"2018-10-01T07:55:17.000Z","ept":0.005,"lat":36.622703127,"lon":127.345411760,"alt":-183.031,"epv":1677.160,"track":86.3476,"speed":0.611,"climb":-0.002,"eps":1.67,"epc":3358.23}
{"class":"TPV","device":"/dev/ttyAMA0","mode":3,"time":"2018-10-01T07:55:18.000Z","ept":0.005,"lat":36.622701839,"lon":127.345430345,"alt":-181.682,"epv":1673.250,"track":61.7995,"speed":0.070,"climb":0.005,"eps":1.43,"epc":3350.41}
{"class":"TPV","device":"/dev/ttyAMA0","mode":3,"time":"2018-10-01T07:55:19.000Z","ept":0.005,"lat":36.622701599,"lon":127.345446908,"alt":-181.328,"epv":1669.340,"track":265.5790,"speed":0.171,"climb":0.001,"eps":1.39,"epc":3342.59}
{"class":"TPV","device":"/dev/ttyAMA0","mode":3,"time":"2018-10-01T07:55:20.000Z","ept":0.005,"lat":36.622698273,"lon":127.345478242,"alt":-178.703,"epv":1665.430,"track":261.6993,"speed":0.421,"climb":-0.002,"eps":1.36,"epc":3334.77}
{"class":"TPV","device":"/dev/ttyAMA0","mode":3,"time":"2018-10-01T07:55:21.000Z","ept":0.005,"lat":36.622697990,"lon":127.345485268,"alt":-178.191,"epv":1661.520,"track":265.5560,"speed":0.199,"climb":0.004,"eps":1.34,"epc":3326.95}
{"class":"TPV","device":"/dev/ttyAMA0","mode":3,"time":"2018-10-01T07:55:22.000Z","ept":0.005,"lat":36.622698391,"lon":127.345490306,"alt":-177.949,"epv":1657.610,"track":205.4123,"speed":0.028,"climb":0.001,"eps":0.94,"epc":3319.13}
{"class":"TPV","device":"/dev/ttyAMA0","mode":3,"time":"2018-10-01T07:55:23.000Z","ept":0.005,"lat":36.622699966,"lon":127.345478656,"alt":-179.609,"epv":1653.930,"track":90.2837,"speed":0.050,"climb":0.000,"eps":1.33,"epc":3311.54}
{"class":"TPV","device":"/dev/ttyAMA0","mode":3,"time":"2018-10-01T07:55:24.000Z","ept":0.005,"lat":36.622699493,"lon":127.345478742,"alt":-179.907,"epv":1650.020,"track":124.2522,"speed":0.046,"climb":0.001,"eps":1.07,"epc":3303.95}
{"class":"TPV","device":"/dev/ttyAMA0","mode":3,"time":"2018-10-01T07:55:25.000Z","ept":0.005,"lat":36.622698508,"lon":127.345489934,"alt":-179.241,"epv":1646.340,"track":222.4976,"speed":0.030,"climb":-0.004,"eps":0.99,"epc":3296.36}
{"class":"TPV","device":"/dev/ttyAMA0","mode":3,"time":"2018-10-01T07:55:26.000Z","ept":0.005,"lat":36.622695146,"lon":127.345526054,"alt":-176.023,"epv":1642.430,"track":265.4162,"speed":0.014,"climb":0.002,"eps":1.44,"epc":3288.77}
{"class":"SKY","device":"/dev/ttyAMA0","vdop":71.41,"tdop":74.49,"hdop":59.41,"gdop":99.99,"pdop":92.89,"satellites":[{"PRN":2,"el":14,"az":159,"ss":20,"used":false},{"PRN":5,"el":45,"az":91,"ss":23,"used":false},{"PRN":13,"el":61,"az":34,"ss":26,"used":true},{"PRN":194,"el":37,"az":148,"ss":28,"used":true},{"PRN":71,"el":41,"az":46,"ss":27,"used":true},{"PRN":73,"el":36,"az":76,"ss":26,"used":false},{"PRN":74,"el":28,"az":136,"ss":32,"used":true},{"PRN":88,"el":18,"az":328,"ss":17,"used":false}]}
{"class":"TPV","device":"/dev/ttyAMA0","mode":3,"time":"2018-10-01T07:55:27.000Z","ept":0.005,"lat":36.622697843,"lon":127.345506666,"alt":-178.186,"epv":1638.750,"track":66.6386,"speed":0.151,"climb":0.003,"eps":1.44,"epc":3281.18}
{"class":"TPV","device":"/dev/ttyAMA0","mode":3,"time":"2018-10-01T07:55:28.000Z","ept":0.005,"lat":36.622697424,"lon":127.345511730,"alt":-178.056,"epv":1635.070,"track":278.5104,"speed":0.073,"climb":0.002,"eps":1.53,"epc":3273.82}
{"class":"TPV","device":"/dev/ttyAMA0","mode":3,"time":"2018-10-01T07:55:29.000Z","ept":0.005,"lat":36.622699317,"lon":127.345496037,"alt":-180.065,"epv":1631.160,"track":265.6112,"speed":0.285,"climb":-0.004,"eps":1.45,"epc":3266.23}
{"class":"TPV","device":"/dev/ttyAMA0","mode":3,"time":"2018-10-01T07:55:30.000Z","ept":0.005,"lat":36.622697388,"lon":127.345512606,"alt":-178.721,"epv":1627.480,"track":266.0447,"speed":0.519,"climb":-0.002,"eps":1.37,"epc":3258.64}
{"class":"TPV","device":"/dev/ttyAMA0","mode":3,"time":"2018-10-01T07:55:31.000Z","ept":0.005,"lat":36.622702019,"lon":127.345471350,"alt":-183.117,"epv":1623.800,"track":266.3083,"speed":0.335,"climb":-0.005,"eps":1.34,"epc":3251.28}
{"class":"TPV","device":"/dev/ttyAMA0","mode":3,"time":"2018-10-01T07:55:32.000Z","ept":0.005,"lat":36.622704541,"lon":127.345449274,"alt":-185.539,"epv":1620.120,"track":265.5387,"speed":0.227,"climb":0.007,"eps":1.61,"epc":3243.92}
{"class":"TPV","device":"/dev/ttyAMA0","mode":3,"time":"2018-10-01T07:55:33.000Z","ept":0.005,"lat":36.622708386,"lon":127.345417020,"alt":-189.281,"epv":1616.670,"track":281.5972,"speed":0.059,"climb":0.001,"eps":1.33,"epc":3236.79}
{"class":"TPV","device":"/dev/ttyAMA0","mode":3,"time":"2018-10-01T07:55:34.000Z","ept":0.005,"lat":36.622710467,"lon":127.345401298,"alt":-191.168,"epv":1612.990,"track":93.0350,"speed":0.316,"climb":0.006,"eps":1.33,"epc":3229.66}
{"class":"TPV","device":"/dev/ttyAMA0","mode":3,"time":"2018-10-01T07:55:35.000Z","ept":0.005,"lat":36.622710358,"lon":127.345399365,"alt":-191.654,"epv":1609.310,"track":86.1799,"speed":0.391,"climb":-0.002,"eps":1.34,"epc":3222.30}
{"class":"TPV","device":"/dev/ttyAMA0","mode":3,"time":"2018-10-01T07:55:36.000Z","ept":0.005,"lat":36.622710659,"lon":127.345392706,"alt":-192.588,"epv":1605.630,"track":86.6716,"speed":0.647,"climb":-0.000,"eps":1.31,"epc":3214.94}
{"class":"SKY","device":"/dev/ttyAMA0","vdop":69.81,"tdop":72.77,"hdop":57.89,"gdop":99.99,"pdop":90.69,"satellites":[{"PRN":2,"el":14,"az":159,"ss":23,"used":false},{"PRN":5,"el":45,"az":91,"ss":23,"used":false},{"PRN":13,"el":61,"az":34,"ss":25,"used":true},{"PRN":194,"el":37,"az":148,"ss":28,"used":true},{"PRN":71,"el":41,"az":46,"ss":28,"used":true},{"PRN":73,"el":36,"az":76,"ss":24,"used":false},{"PRN":74,"el":28,"az":136,"ss":33,"used":true},{"PRN":88,"el":18,"az":328,"ss":16,"used":false}]}
{"class":"TPV","device":"/dev/ttyAMA0","mode":3,"time":"2018-10-01T07:55:37.000Z","ept":0.005,"lat":36.622713847,"lon":127.345370020,"alt":-195.461,"epv":1602.180,"track":88.0694,"speed":0.662,"climb":0.003,"eps":1.38,"epc":3207.81}
{"class":"TPV","device":"/dev/ttyAMA0","mode":3,"time":"2018-10-01T07:55:38.000Z","ept":0.005,"lat":36.622714646,"lon":127.345363820,"alt":-196.502,"epv":1598.500,"track":95.8148,"speed":0.253,"climb":0.001,"eps":1.46,"epc":3200.68}
{"class":"TPV","device":"/dev/ttyAMA0","mode":3,"time":"2018-10-01T07:55:39.000Z","ept":0.005,"lat":36.622641879,"lon":127.346029659,"alt":-125.929,"epv":1595.050,"track":59.9910,"speed":0.162,"climb":-0.025,"eps":1.31,"epc":3193.55}
{"class":"TPV","device":"/dev/ttyAMA0","mode":3,"time":"2018-10-01T07:55:40.000Z","ept":0.005,"lat":36.622604838,"lon":127.346365457,"alt":-89.957,"epv":242.650,"track":271.6770,"speed":0.286,"climb":-0.062,"eps":1.45,"epc":1837.70}
{"class":"TPV","device":"/dev/ttyAMA0","mode":3,"time":"2018-10-01T07:55:41.000Z","ept":0.005,"lat":36.622581706,"lon":127.346573562,"alt":-67.914,"epv":242.880,"track":270.8702,"speed":0.159,"climb":-0.087,"eps":1.34,"epc":485.53}
{"class":"TPV","device":"/dev/ttyAMA0","mode":3,"time":"2018-10-01T07:55:42.000Z","ept":0.005,"lat":36.622563926,"lon":127.346731444,"alt":-51.094,"epv":243.110,"track":297.9718,"speed":0.096,"climb":-0.094,"eps":1.09,"epc":485.99}
{"class":"TPV","device":"/dev/ttyAMA0","mode":3,"time":"2018-10-01T07:55:43.000Z","ept":0.005,"lat":36.622547686,"lon":127.346881779,"alt":-35.511,"epv":243.340,"track":64.0706,"speed":0.141,"climb":-0.100,"eps":1.38,"epc":486.45}
{"class":"TPV","device":"/dev/ttyAMA0","mode":3,"time":"2018-10-01T07:55:44.000Z","ept":0.005,"lat":36.622534865,"lon":127.346997944,"alt":-23.774,"epv":243.570,"track":98.9375,"speed":0.161,"climb":-0.134,"eps":1.29,"epc":486.91}
{"class":"TPV","device":"/dev/ttyAMA0","mode":3,"time":"2018-10-01T07:55:45.000Z","ept":0.005,"lat":36.622525030,"lon":127.347082233,"alt":-14.611,"epv":243.570,"track":101.9594,"speed":0.048,"climb":-0.104,"eps":0.99,"epc":487.14}
{"class":"TPV","device":"/dev/ttyAMA0","mode":3,"time":"2018-10-01T07:55:46.000Z","ept":0.005,"lat":36.622516976,"lon":127.347156525,"alt":-7.374,"epv":243.800,"track":76.7525,"speed":0.097,"climb":-0.097,"eps":1.20,"epc":487.37}
{"class":"SKY","device":"/dev/ttyAMA0","xdop":6.36,"ydop":1.95,"vdop":10.60,"tdop":9.89,"hdop":6.42,"gdop":15.86,"pdop":12.40,"satellites":[{"PRN":2,"el":14,"az":159,"ss":22,"used":false},{"PRN":5,"el":45,"az":91,"ss":24,"used":false},{"PRN":13,"el":61,"az":34,"ss":26,"used":true},{"PRN":194,"el":37,"az":148,"ss":29,"used":true},{"PRN":71,"el":41,"az":46,"ss":27,"used":true},{"PRN":73,"el":36,"az":76,"ss":24,"used":true},{"PRN":74,"el":28,"az":136,"ss":32,"used":true},{"PRN":88,"el":18,"az":328,"ss":15,"used":false}]}
{"class":"TPV","device":"/dev/ttyAMA0","mode":3,"time":"2018-10-01T07:55:47.000Z","ept":0.005,"lat":36.622512469,"lon":127.347196104,"alt":-3.298,"epx":95.462,"epy":29.306,"epv":244.030,"track":83.1437,"speed":0.061,"climb":-0.094,"eps":1.13,"epc":487.83}
{"class":"TPV","device":"/dev/ttyAMA0","mode":3,"time":"2018-10-01T07:55:48.000Z","ept":0.005,"lat":36.622508507,"lon":127.347230241,"alt":0.344,"epx":95.462,"epy":29.306,"epv":244.260,"track":283.3803,"speed":0.116,"climb":-0.103,"eps":1.47,"epc":488.29}
{"class":"TPV","device":"/dev/ttyAMA0","mode":3,"time":"2018-10-01T07:55:49.000Z","ept":0.005,"lat":36.622507042,"lon":127.347240399,"alt":1.636,"epx":95.462,"epy":29.306,"epv":244.490,"track":283.4172,"speed":0.359,"climb":-0.129,"eps":1.57,"epc":488.75}
{"class":"TPV","device":"/dev/ttyAMA0","mode":3,"time":"2018-10-01T07:55:50.000Z","ept":0.005,"lat":36.622506678,"lon":127.347246314,"alt":2.344,"epx":95.462,"epy":29.306,"epv":244.490,"track":281.7514,"speed":0.531,"climb":-0.179,"eps":1.63,"epc":488.98}
{"class":"TPV","device":"/dev/ttyAMA0","mode":3,"time":"2018-10-01T07:55:51.000Z","ept":0.005,"lat":36.622506716,"lon":127.347244328,"alt":2.288,"epx":95.462,"epy":29.306,"epv":244.720,"track":271.1778,"speed":0.481,"climb":-0.214,"eps":1.68,"epc":489.21}
{"class":"TPV","device":"/dev/ttyAMA0","mode":3,"time":"2018-10-01T07:55:52.000Z","ept":0.005,"lat":36.622505556,"lon":127.347250386,"alt":3.115,"epx":95.462,"epy":29.306,"epv":244.950,"track":274.6625,"speed":0.379,"climb":-0.243,"eps":1.71,"epc":489.67}
{"class":"TPV","device":"/dev/ttyAMA0","mode":3,"time":"2018-10-01T07:55:53.000Z","ept":0.005,"lat":36.622504738,"lon":127.347261518,"alt":4.276,"epx":95.462,"epy":29.306,"epv":245.180,"track":65.2426,"speed":0.178,"climb":-0.167,"eps":1.23,"epc":490.13}
{"class":"TPV","device":"/dev/ttyAMA0","mode":3,"time":"2018-10-01T07:55:54.000Z","ept":0.005,"lat":36.622505210,"lon":127.347260213,"alt":4.423,"epx":95.462,"epy":29.306,"epv":245.410,"track":79.8616,"speed":0.312,"climb":-0.091,"eps":1.57,"epc":490.59}
{"class":"TPV","device":"/dev/ttyAMA0","mode":3,"time":"2018-10-01T07:55:55.000Z","ept":0.005,"lat":36.622505963,"lon":127.347257961,"alt":3.808,"epx":95.462,"epy":29.306,"epv":245.640,"track":98.0629,"speed":0.441,"climb":-0.101,"eps":1.62,"epc":491.05}
{"class":"TPV","device":"/dev/ttyAMA0","mode":3,"time":"2018-10-01T07:55:56.000Z","ept":0.005,"lat":36.622505843,"lon":127.347253810,"alt":3.994,"epx":95.462,"epy":29.306,"epv":245.640,"track":89.5825,"speed":0.292,"climb":-0.003,"eps":1.79,"epc":491.28}
{"class":"SKY","device":"/dev/ttyAMA0","xdop":6.36,"ydop":1.95,"vdop":10.68,"tdop":9.97,"hdop":6.47,"gdop":15.98,"pdop":12.49,"satellites":[{"PRN":2,"el":14,"az":159,"ss":21,"used":false},{"PRN":5,"el":45,"az":91,"ss":23,"used":false},{"PRN":13,"el":61,"az":34,"ss":22,"used":true},{"PRN":194,"el":37,"az":148,"ss":27,"used":true},{"PRN":71,"el":40,"az":46,"ss":27,"used":true},{"PRN":73,"el":37,"az":76,"ss":23,"used":true},{"PRN":74,"el":29,"az":136,"ss":32,"used":true},{"PRN":88,"el":18,"az":328,"ss":13,"used":false}]}
{"class":"TPV","device":"/dev/ttyAMA0","mode":3,"time":"2018-10-01T07:55:57.000Z","ept":0.005,"lat":36.622505983,"lon":127.347255926,"alt":4.107,"epx":95.462,"epy":29.306,"epv":245.870,"track":88.4490,"speed":0.518,"climb":0.048,"eps":1.84,"epc":491.51}
{"class":"TPV","device":"/dev/ttyAMA0","mode":3,"time":"2018-10-01T07:55:58.000Z","ept":0.005,"lat":36.622506250,"lon":127.347253319,"alt":4.017,"epx":95.462,"epy":29.306,"epv":246.100,"track":90.3218,"speed":0.172,"climb":0.068,"eps":1.91,"epc":491.97}
{"class":"TPV","device":"/dev/ttyAMA0","mode":3,"time":"2018-10-01T07:55:59.000Z","ept":0.005,"lat":36.622506176,"lon":127.347260440,"alt":4.162,"epx":95.462,"epy":29.306,"epv":246.330,"track":263.9740,"speed":0.038,"climb":0.039,"eps":1.26,"epc":492.43}
{"class":"TPV","device":"/dev/ttyAMA0","mode":3,"time":"2018-10-01T07:56:00.000Z","ept":0.005,"lat":36.622506321,"lon":127.347266783,"alt":4.274,"epx":95.462,"epy":29.306,"epv":246.560,"track":285.4980,"speed":0.288,"climb":-0.003,"eps":1.65,"epc":492.89}
{"class":"TPV","device":"/dev/ttyAMA0","mode":3,"time":"2018-10-01T07:56:01.000Z","ept":0.005,"lat":36.622507068,"lon":127.347266252,"alt":3.962,"epx":95.462,"epy":29.306,"epv":246.560,"track":275.4997,"speed":0.630,"climb":-0.081,"eps":1.72,"epc":493.12}
{"class":"TPV","device":"/dev/ttyAMA0","mode":3,"time":"2018-10-01T07:56:02.000Z","ept":0.005,"lat":36.622508358,"lon":127.347262285,"alt":2.696,"epx":95.462,"epy":29.306,"epv":246.790,"track":275.1987,"speed":0.444,"climb":-0.172,"eps":1.81,"epc":493.35}
{"class":"TPV","device":"/dev/ttyAMA0","mode":3,"time":"2018-10-01T07:56:03.000Z","ept":0.005,"lat":36.622510115,"lon":127.347247068,"alt":0.607,"epx":95.462,"epy":29.306,"epv":247.020,"track":275.7127,"speed":0.505,"climb":-0.252,"eps":1.82,"epc":493.81}
{"class":"TPV","device":"/dev/ttyAMA0","mode":3,"time":"2018-10-01T07:56:04.000Z","ept":0.005,"lat":36.622510350,"lon":127.347244220,"alt":-0.149,"epx":95.462,"epy":29.306,"epv":247.250,"track":8.9032,"speed":0.023,"climb":-0.215,"eps":1.54,"epc":494.27}
{"class":"TPV","device":"/dev/ttyAMA0","mode":3,"time":"2018-10-01T07:56:05.000Z","ept":0.005,"lat":36.622509937,"lon":127.347244247,"alt":-0.557,"epx":95.462,"epy":29.306,"epv":247.480,"track":92.4931,"speed":0.481,"climb":-0.123,"eps":1.45,"epc":494.73}
{"class":"TPV","device":"/dev/ttyAMA0","mode":3,"time":"2018-10-01T07:56:06.000Z","ept":0.005,"lat":36.622509552,"lon":127.347247444,"alt":-0.583,"epx":95.462,"epy":29.306,"epv":247.480,"track":75.8559,"speed":0.420,"climb":-0.054,"eps":1.56,"epc":494.96}
{"class":"SKY","device":"/dev/ttyAMA0","xdop":6.36,"ydop":1.95,"vdop":10.76,"tdop":10.05,"hdop":6.51,"gdop":16.10,"pdop":12.58,"satellites":[{"PRN":2,"el":14,"az":159,"ss":22,"used":false},{"PRN":5,"el":45,"az":91,"ss":23,"used":false},{"PRN":13,"el":61,"az":34,"ss":24,"used":true},{"PRN":194,"el":37,"az":148,"ss":27,"used":true},{"PRN":71,"el":40,"az":46,"ss":27,"used":true},{"PRN":73,"el":37,"az":76,"ss":24,"used":true},{"PRN":74,"el":29,"az":136,"ss":31,"used":true},{"PRN":88,"el":18,"az":328,"ss":11,"used":false}]}
{"class":"TPV","device":"/dev/ttyAMA0","mode":3,"time":"2018-10-01T07:56:07.000Z","ept":0.005,"lat":36.622509189,"lon":127.347245007,"alt":-0.914,"epx":95.462,"epy":29.306,"epv":247.710,"track":87.2875,"speed":0.071,"climb":-0.072,"eps":1.08,"epc":495.19}
{"class":"TPV","device":"/dev/ttyAMA0","mode":3,"time":"2018-10-01T07:56:08.000Z","ept":0.005,"lat":36.622508866,"lon":127.347243878,"alt":-1.084,"epx":95.462,"epy":29.306,"epv":247.940,"track":229.9624,"speed":0.018,"climb":-0.068,"eps":1.62,"epc":495.65}
{"class":"TPV","device":"/dev/ttyAMA0","mode":3,"time":"2018-10-01T07:56:09.000Z","ept":0.005,"lat":36.622508998,"lon":127.347232900,"alt":-1.976,"epx":95.462,"epy":29.306,"epv":248.170,"track":259.5029,"speed":0.282,"climb":-0.098,"eps":1.69,"epc":496.11}
{"class":"TPV","device":"/dev/ttyAMA0","mode":3,"time":"2018-10-01T07:56:10.000Z","ept":0.005,"lat":36.622507993,"lon":127.347235437,"alt":-1.608,"epx":95.462,"epy":29.306,"epv":248.400,"track":309.9881,"speed":0.020,"climb":-0.068,"eps":1.67,"epc":496.57}
{"class":"TPV","device":"/dev/ttyAMA0","mode":3,"time":"2018-10-01T07:56:11.000Z","ept":0.005,"lat":36.622508859,"lon":127.347221477,"alt":-2.927,"epx":95.462,"epy":29.306,"epv":248.630,"track":263.1915,"speed":0.287,"climb":-0.155,"eps":1.78,"epc":497.03}
{"class":"TPV","device":"/dev/ttyAMA0","mode":3,"time":"2018-10-01T07:56:12.000Z","ept":0.005,"lat":36.622509454,"lon":127.347215742,"alt":-3.334,"epx":95.462,"epy":29.306,"epv":248.630,"track":275.5568,"speed":0.434,"climb":-0.207,"eps":1.76,"epc":497.26}
{"class":"TPV","device":"/dev/ttyAMA0","mode":3,"time":"2018-10-01T07:56:13.000Z","ept":0.005,"lat":36.622511821,"lon":127.347191975,"alt":-5.850,"epx":95.462,"epy":29.306,"epv":248.860,"track":269.8365,"speed":1.093,"climb":-0.415,"eps":1.71,"epc":497.49}
{"class":"TPV","device":"/dev/ttyAMA0","mode":3,"time":"2018-10-01T07:56:14.000Z","ept":0.005,"lat":36.622513742,"lon":127.347172014,"alt":-7.562,"epx":95.462,"epy":29.306,"epv":249.090,"track":272.3280,"speed":0.849,"climb":-0.499,"eps":1.78,"epc":497.95}
{"class":"TPV","device":"/dev/ttyAMA0","mode":3,"time":"2018-10-01T07:56:15.000Z","ept":0.005,"lat":36.622514802,"lon":127.347170809,"alt":-8.407,"epx":95.462,"epy":29.306,"epv":249.320,"track":278.2539,"speed":0.530,"climb":-0.505,"eps":1.84,"epc":498.41}
{"class":"TPV","device":"/dev/ttyAMA0","mode":3,"time":"2018-10-01T07:56:16.000Z","ept":0.005,"lat":36.622516326,"lon":127.347165685,"alt":-9.423,"epx":95.462,"epy":29.306,"epv":249.550,"track":282.2019,"speed":0.409,"climb":-0.535,"eps":1.84,"epc":498.87}
{"class":"SKY","device":"/dev/ttyAMA0","xdop":6.36,"ydop":1.95,"vdop":10.85,"tdop":10.13,"hdop":6.56,"gdop":16.23,"pdop":12.68,"satellites":[{"PRN":2,"el":14,"az":160,"ss":22,"used":false},{"PRN":5,"el":45,"az":91,"ss":14,"used":false},{"PRN":13,"el":61,"az":34,"ss":27,"used":true},{"PRN":30,"el":13,"az":41,"ss":19,"used":false},{"PRN":194,"el":37,"az":148,"ss":27,"used":true},{"PRN":71,"el":40,"az":46,"ss":27,"used":true},{"PRN":73,"el":37,"az":76,"ss":24,"used":true},{"PRN":74,"el":29,"az":136,"ss":32,"used":true},{"PRN":88,"el":18,"az":328,"ss":14,"used":false}]}
