{"class":"VERSION","release":"3.16","rev":"3.16-4","proto_major":3,"proto_minor":11}
{"class":"DEVICES","devices":[{"class":"DEVICE","path":"/dev/ttyAMA0","activated":"2018-10-02T00:11:56.153Z","native":0,"bps":9600,"parity":"N","stopbits":1,"cycle":1.00}]}
{"class":"WATCH","enable":true,"json":true,"nmea":false,"raw":0,"scaled":false,"timing":false,"split24":false,"pps":false}
{"class":"DEVICE","path":"/dev/ttyAMA0","driver":"NMEA0183","activated":"2018-10-02T00:11:56.153Z","native":0,"bps":9600,"parity":"N","stopbits":1,"cycle":1.00}
{"class":"TPV","device":"/dev/ttyAMA0","mode":1}
{"class":"TPV","device":"/dev/ttyAMA0","mode":1}
{"class":"SKY","device":"/dev/ttyAMA0","vdop":3.00,"hdop":6.72,"pdop":7.36,"satellites":[{"PRN":1,"el":35,"az":50,"ss":29,"used":false},{"PRN":9,"el":0,"az":154,"ss":0,"used":false},{"PRN":11,"el":0,"az":0,"ss":24,"used":false},{"PRN":17,"el":56,"az":327,"ss":27,"used":false},{"PRN":18,"el":0,"az":0,"ss":22,"used":false},{"PRN":19,"el":30,"az":306,"ss":31,"used":false},{"PRN":22,"el":43,"az":60,"ss":24,"used":false}]}
{"class":"SKY","device":"/dev/ttyAMA0","vdop":3.00,"hdop":6.72,"pdop":7.36,"satellites":[{"PRN":1,"el":35,"az":50,"ss":29,"used":false},{"PRN":9,"el":0,"az":154,"ss":0,"used":false},{"PRN":11,"el":0,"az":0,"ss":24,"used":false},{"PRN":17,"el":56,"az":327,"ss":27,"used":false},{"PRN":18,"el":0,"az":0,"ss":22,"used":false},{"PRN":19,"el":30,"az":306,"ss":31,"used":false},{"PRN":22,"el":43,"az":60,"ss":24,"used":false},{"PRN":75,"el":0,"az":0,"ss":26,"used":false},{"PRN":85,"el":18,"az":292,"ss":30,"used":true},{"PRN":37,"el":0,"az":0,"ss":25,"used":true},{"PRN":37,"el":0,"az":0,"ss":30,"used":true}]}
{"class":"DEVICE","path":"/dev/ttyAMA0","driver":"u-blox","activated":"2018-10-02T00:11:56.748Z","flags":1,"native":1,"bps":9600,"parity":"N","stopbits":1,"cycle":1.00,"mincycle":0.25}
{"class":"TPV","device":"/dev/ttyAMA0","mode":3,"time":"2018-10-02T00:11:58.000Z","ept":0.005,"lat":36.622628331,"lon":127.347676888,"alt":26.491,"epv":69.000,"track":170.5611,"speed":0.191,"climb":-0.048,"eps":2.05}
{"class":"TPV","device":"/dev/ttyAMA0","mode":3,"time":"2018-10-02T00:11:59.000Z","ept":0.005,"lat":36.622616335,"lon":127.347686308,"alt":27.494,"epv":69.000,"track":163.3014,"speed":0.023,"climb":-0.088,"eps":0.77,"epc":138.00}
{"class":"TPV","device":"/dev/ttyAMA0","mode":3,"time":"2018-10-02T00:12:00.000Z","ept":0.005,"lat":36.622628761,"lon":127.347672082,"alt":27.700,"epv":69.000,"track":243.4009,"speed":0.029,"climb":-0.050,"eps":0.63,"epc":138.00}
{"class":"TPV","device":"/dev/ttyAMA0","mode":3,"time":"2018-10-02T00:12:01.000Z","ept":0.005,"lat":36.622621591,"lon":127.347684423,"alt":26.826,"epv":69.000,"track":245.5606,"speed":0.030,"climb":-0.067,"eps":0.62,"epc":138.00}
{"class":"TPV","device":"/dev/ttyAMA0","mode":3,"time":"2018-10-02T00:12:02.000Z","ept":0.005,"lat":36.622629360,"lon":127.347670398,"alt":27.544,"epv":69.000,"track":348.3260,"speed":0.104,"climb":-0.054,"eps":2.14,"epc":138.00}
{"class":"TPV","device":"/dev/ttyAMA0","mode":3,"time":"2018-10-02T00:12:03.000Z","ept":0.005,"lat":36.622635794,"lon":127.347675127,"alt":28.226,"epv":69.000,"track":23.2429,"speed":0.104,"climb":-0.078,"eps":1.18,"epc":138.00}
{"class":"TPV","device":"/dev/ttyAMA0","mode":3,"time":"2018-10-02T00:12:04.000Z","ept":0.005,"lat":36.622652109,"lon":127.347666635,"alt":29.210,"epv":64.400,"track":167.8000,"speed":0.011,"climb":-0.053,"eps":0.70,"epc":133.40}
{"class":"TPV","device":"/dev/ttyAMA0","mode":3,"time":"2018-10-02T00:12:05.000Z","ept":0.005,"lat":36.622657958,"lon":127.347667016,"alt":29.678,"epv":64.400,"track":36.2575,"speed":0.065,"climb":-0.003,"eps":1.04,"epc":128.80}
{"class":"TPV","device":"/dev/ttyAMA0","mode":3,"time":"2018-10-02T00:12:06.000Z","ept":0.005,"lat":36.622672133,"lon":127.347663658,"alt":30.311,"epv":64.400,"track":177.1216,"speed":0.217,"climb":0.006,"eps":1.21,"epc":128.80}
{"class":"TPV","device":"/dev/ttyAMA0","mode":3,"time":"2018-10-02T00:12:07.000Z","ept":0.005,"lat":36.622674813,"lon":127.347667982,"alt":30.414,"epv":64.400,"track":175.5890,"speed":0.367,"climb":-0.010,"eps":1.19,"epc":128.80}
{"class":"SKY","device":"/dev/ttyAMA0","xdop":0.80,"ydop":3.62,"vdop":2.80,"tdop":2.66,"hdop":3.76,"gdop":5.39,"pdop":4.69,"satellites":[{"PRN":1,"el":35,"az":50,"ss":28,"used":true},{"PRN":17,"el":56,"az":327,"ss":26,"used":true},{"PRN":19,"el":30,"az":306,"ss":28,"used":true},{"PRN":22,"el":43,"az":60,"ss":21,"used":true},{"PRN":75,"el":21,"az":319,"ss":28,"used":true},{"PRN":84,"el":51,"az":349,"ss":21,"used":false},{"PRN":85,"el":18,"az":292,"ss":34,"used":true},{"PRN":255,"el":-91,"az":0,"ss":18,"used":false},{"PRN":255,"el":-91,"az":0,"ss":28,"used":false}]}
{"class":"TPV","device":"/dev/ttyAMA0","mode":3,"time":"2018-10-02T00:12:08.000Z","ept":0.005,"lat":36.622679978,"lon":127.347664600,"alt":30.615,"epx":11.982,"epy":54.337,"epv":64.400,"track":178.9658,"speed":0.452,"climb":-0.062,"eps":1.10,"epc":128.80}
{"class":"TPV","device":"/dev/ttyAMA0","mode":3,"time":"2018-10-02T00:12:09.000Z","ept":0.005,"lat":36.622672392,"lon":127.347662694,"alt":30.658,"epx":11.982,"epy":54.337,"epv":64.400,"track":170.7770,"speed":0.210,"climb":-0.106,"eps":0.72,"epc":128.80}
{"class":"TPV","device":"/dev/ttyAMA0","mode":3,"time":"2018-10-02T00:12:10.000Z","ept":0.005,"lat":36.622663728,"lon":127.347656775,"alt":31.649,"epx":11.982,"epy":54.337,"epv":64.400,"track":180.9631,"speed":0.112,"climb":-0.101,"eps":0.69,"epc":128.80}
{"class":"TPV","device":"/dev/ttyAMA0","mode":3,"time":"2018-10-02T00:12:11.000Z","ept":0.005,"lat":36.622653015,"lon":127.347664860,"alt":31.187,"epx":11.982,"epy":54.337,"epv":64.400,"track":132.9331,"speed":0.098,"climb":-0.044,"eps":0.61,"epc":128.80}
{"class":"TPV","device":"/dev/ttyAMA0","mode":3,"time":"2018-10-02T00:12:12.000Z","ept":0.005,"lat":36.622642532,"lon":127.347669098,"alt":31.059,"epx":11.982,"epy":54.337,"epv":64.400,"track":138.4661,"speed":0.039,"climb":-0.044,"eps":0.66,"epc":128.80}
{"class":"TPV","device":"/dev/ttyAMA0","mode":3,"time":"2018-10-02T00:12:13.000Z","ept":0.005,"lat":36.622635088,"lon":127.347670022,"alt":30.947,"epx":11.982,"epy":54.337,"epv":64.400,"track":146.2132,"speed":0.101,"climb":-0.072,"eps":0.65,"epc":128.80}
{"class":"TPV","device":"/dev/ttyAMA0","mode":3,"time":"2018-10-02T00:12:14.000Z","ept":0.005,"lat":36.622629304,"lon":127.347669969,"alt":30.888,"epx":11.982,"epy":54.337,"epv":64.400,"track":347.3932,"speed":0.062,"climb":-0.015,"eps":0.60,"epc":128.80}
{"class":"TPV","device":"/dev/ttyAMA0","mode":3,"time":"2018-10-02T00:12:15.000Z","ept":0.005,"lat":36.622623834,"lon":127.347669604,"alt":30.531,"epx":11.982,"epy":54.337,"epv":64.400,"track":330.1195,"speed":0.328,"climb":0.087,"eps":0.62,"epc":128.80}
{"class":"TPV","device":"/dev/ttyAMA0","mode":3,"time":"2018-10-02T00:12:16.000Z","ept":0.005,"lat":36.622616997,"lon":127.347658105,"alt":30.949,"epx":11.982,"epy":54.337,"epv":64.400,"track":322.8686,"speed":0.146,"climb":0.128,"eps":0.64,"epc":128.80}
{"class":"TPV","device":"/dev/ttyAMA0","mode":3,"time":"2018-10-02T00:12:17.000Z","ept":0.005,"lat":36.622613103,"lon":127.347659973,"alt":30.457,"epx":11.982,"epy":54.337,"epv":64.400,"track":99.4892,"speed":0.058,"climb":0.063,"eps":0.55,"epc":128.80}
{"class":"SKY","device":"/dev/ttyAMA0","xdop":0.80,"ydop":3.62,"vdop":2.80,"tdop":2.11,"hdop":1.86,"gdop":3.97,"pdop":3.36,"satellites":[{"PRN":1,"el":35,"az":50,"ss":25,"used":true},{"PRN":2,"el":-91,"az":0,"ss":8,"used":false},{"PRN":17,"el":56,"az":327,"ss":24,"used":true},{"PRN":19,"el":30,"az":306,"ss":28,"used":true},{"PRN":22,"el":43,"az":60,"ss":21,"used":true},{"PRN":74,"el":39,"az":258,"ss":31,"used":true},{"PRN":75,"el":21,"az":319,"ss":30,"used":true},{"PRN":84,"el":51,"az":350,"ss":20,"used":false},{"PRN":85,"el":18,"az":293,"ss":33,"used":true},{"PRN":255,"el":-91,"az":0,"ss":18,"used":false}]}
{"class":"TPV","device":"/dev/ttyAMA0","mode":3,"time":"2018-10-02T00:12:18.000Z","ept":0.005,"lat":36.622609089,"lon":127.347656199,"alt":30.369,"epx":11.982,"epy":54.337,"epv":64.400,"track":317.8761,"speed":0.116,"climb":0.068,"eps":0.65,"epc":128.80}
{"class":"TPV","device":"/dev/ttyAMA0","mode":3,"time":"2018-10-02T00:12:19.000Z","ept":0.005,"lat":36.622604823,"lon":127.347660939,"alt":29.715,"epx":11.982,"epy":54.337,"epv":64.400,"track":308.2744,"speed":0.140,"climb":0.101,"eps":0.67,"epc":128.80}
{"class":"TPV","device":"/dev/ttyAMA0","mode":3,"time":"2018-10-02T00:12:20.000Z","ept":0.005,"lat":36.622597926,"lon":127.347654337,"alt":29.823,"epx":11.982,"epy":54.337,"epv":64.400,"track":318.3208,"speed":0.247,"climb":0.138,"eps":0.68,"epc":128.80}
{"class":"TPV","device":"/dev/ttyAMA0","mode":3,"time":"2018-10-02T00:12:21.000Z","ept":0.005,"lat":36.622592386,"lon":127.347648937,"alt":30.114,"epx":11.982,"epy":54.337,"epv":64.400,"track":305.6032,"speed":0.276,"climb":0.219,"eps":0.69,"epc":128.80}
{"class":"TPV","device":"/dev/ttyAMA0","mode":3,"time":"2018-10-02T00:12:22.000Z","ept":0.005,"lat":36.622587325,"lon":127.347647347,"alt":30.031,"epx":11.982,"epy":54.337,"epv":64.400,"track":333.5046,"speed":0.100,"climb":0.181,"eps":0.70,"epc":128.80}
{"class":"TPV","device":"/dev/ttyAMA0","mode":3,"time":"2018-10-02T00:12:23.000Z","ept":0.005,"lat":36.622587549,"lon":127.347649017,"alt":29.847,"epx":11.982,"epy":54.337,"epv":64.400,"track":255.7192,"speed":0.017,"climb":0.106,"eps":0.67,"epc":128.80}
{"class":"TPV","device":"/dev/ttyAMA0","mode":3,"time":"2018-10-02T00:12:24.000Z","ept":0.005,"lat":36.622587610,"lon":127.347651131,"alt":29.687,"epx":11.982,"epy":54.337,"epv":64.400,"track":127.5403,"speed":0.063,"climb":0.034,"eps":0.55,"epc":128.80}
{"class":"TPV","device":"/dev/ttyAMA0","mode":3,"time":"2018-10-02T00:12:25.000Z","ept":0.005,"lat":36.622586715,"lon":127.347652812,"alt":29.552,"epx":11.982,"epy":54.337,"epv":64.400,"track":108.4505,"speed":0.065,"climb":0.028,"eps":0.49,"epc":128.80}
{"class":"TPV","device":"/dev/ttyAMA0","mode":3,"time":"2018-10-02T00:12:26.000Z","ept":0.005,"lat":36.622585815,"lon":127.347652583,"alt":29.553,"epx":11.982,"epy":54.337,"epv":64.400,"track":115.2029,"speed":0.150,"climb":0.019,"eps":0.55,"epc":128.80}
{"class":"TPV","device":"/dev/ttyAMA0","mode":3,"time":"2018-10-02T00:12:27.000Z","ept":0.005,"lat":36.622588983,"lon":127.347649594,"alt":29.717,"epx":11.982,"epy":54.337,"epv":64.400,"track":127.6743,"speed":0.196,"climb":0.027,"eps":0.54,"epc":128.80}
{"class":"SKY","device":"/dev/ttyAMA0","xdop":0.80,"ydop":3.62,"vdop":2.80,"tdop":2.10,"hdop":1.86,"gdop":3.96,"pdop":3.36,"satellites":[{"PRN":1,"el":35,"az":50,"ss":24,"used":true},{"PRN":17,"el":56,"az":327,"ss":26,"used":true},{"PRN":19,"el":30,"az":306,"ss":28,"used":true},{"PRN":22,"el":43,"az":59,"ss":17,"used":true},{"PRN":74,"el":39,"az":258,"ss":31,"used":true},{"PRN":75,"el":21,"az":319,"ss":29,"used":true},{"PRN":84,"el":51,"az":350,"ss":22,"used":false},{"PRN":85,"el":18,"az":293,"ss":33,"used":true},{"PRN":255,"el":-91,"az":0,"ss":19,"used":false}]}
{"class":"TPV","device":"/dev/ttyAMA0","mode":3,"time":"2018-10-02T00:12:28.000Z","ept":0.005,"lat":36.622588904,"lon":127.347653717,"alt":29.293,"epx":11.982,"epy":54.337,"epv":64.400,"track":115.4037,"speed":0.411,"climb":0.002,"eps":0.57,"epc":128.80}
{"class":"TPV","device":"/dev/ttyAMA0","mode":3,"time":"2018-10-02T00:12:29.000Z","ept":0.005,"lat":36.622586714,"lon":127.347655259,"alt":29.133,"epx":11.982,"epy":54.337,"epv":64.400,"track":114.4503,"speed":0.397,"climb":-0.014,"eps":0.59,"epc":128.80}
{"class":"TPV","device":"/dev/ttyAMA0","mode":3,"time":"2018-10-02T00:12:30.000Z","ept":0.005,"lat":36.622584441,"lon":127.347652759,"alt":29.188,"epx":11.982,"epy":54.337,"epv":64.400,"track":118.4832,"speed":0.277,"climb":-0.023,"eps":0.60,"epc":128.80}
{"class":"TPV","device":"/dev/ttyAMA0","mode":3,"time":"2018-10-02T00:12:31.000Z","ept":0.005,"lat":36.622581103,"lon":127.347655553,"alt":28.915,"epx":11.982,"epy":54.337,"epv":64.400,"track":111.9716,"speed":0.328,"climb":-0.053,"eps":0.60,"epc":128.80}
{"class":"TPV","device":"/dev/ttyAMA0","mode":3,"time":"2018-10-02T00:12:32.000Z","ept":0.005,"lat":36.622578985,"lon":127.347658049,"alt":28.561,"epx":11.982,"epy":54.337,"epv":64.400,"track":121.1673,"speed":0.229,"climb":-0.059,"eps":0.60,"epc":128.80}
{"class":"TPV","device":"/dev/ttyAMA0","mode":3,"time":"2018-10-02T00:12:33.000Z","ept":0.005,"lat":36.622575786,"lon":127.347655443,"alt":28.452,"epx":11.982,"epy":54.337,"epv":64.400,"track":131.0018,"speed":0.164,"climb":-0.056,"eps":0.61,"epc":128.80}
{"class":"TPV","device":"/dev/ttyAMA0","mode":3,"time":"2018-10-02T00:12:34.000Z","ept":0.005,"lat":36.622573277,"lon":127.347655834,"alt":28.105,"epx":11.982,"epy":54.337,"epv":64.400,"track":127.6971,"speed":0.174,"climb":-0.058,"eps":0.60,"epc":128.80}
{"class":"TPV","device":"/dev/ttyAMA0","mode":3,"time":"2018-10-02T00:12:35.000Z","ept":0.005,"lat":36.622571283,"lon":127.347652179,"alt":28.085,"epx":11.982,"epy":54.337,"epv":64.400,"track":120.4511,"speed":0.098,"climb":-0.051,"eps":0.50,"epc":128.80}
{"class":"TPV","device":"/dev/ttyAMA0","mode":3,"time":"2018-10-02T00:12:36.000Z","ept":0.005,"lat":36.622569297,"lon":127.347657029,"alt":27.644,"epx":11.982,"epy":54.337,"epv":64.400,"track":111.0972,"speed":0.167,"climb":-0.053,"eps":0.50,"epc":128.80}
{"class":"TPV","device":"/dev/ttyAMA0","mode":3,"time":"2018-10-02T00:12:37.000Z","ept":0.005,"lat":36.622568722,"lon":127.347654419,"alt":27.813,"epx":11.982,"epy":54.337,"epv":64.400,"track":152.0070,"speed":0.275,"climb":-0.042,"eps":0.52,"epc":128.80}
{"class":"SKY","device":"/dev/ttyAMA0","xdop":0.80,"ydop":3.62,"vdop":2.80,"tdop":2.10,"hdop":1.85,"gdop":3.96,"pdop":3.36,"satellites":[{"PRN":1,"el":35,"az":50,"ss":27,"used":true},{"PRN":17,"el":56,"az":327,"ss":28,"used":true},{"PRN":19,"el":30,"az":306,"ss":29,"used":true},{"PRN":22,"el":43,"az":59,"ss":15,"used":true},{"PRN":74,"el":39,"az":258,"ss":32,"used":true},{"PRN":75,"el":21,"az":319,"ss":29,"used":true},{"PRN":84,"el":51,"az":350,"ss":22,"used":false},{"PRN":85,"el":18,"az":293,"ss":33,"used":true},{"PRN":255,"el":-91,"az":0,"ss":18,"used":false}]}
{"class":"TPV","device":"/dev/ttyAMA0","mode":3,"time":"2018-10-02T00:12:38.000Z","ept":0.005,"lat":36.622568754,"lon":127.347663612,"alt":27.171,"epx":11.982,"epy":54.337,"epv":64.400,"track":142.3945,"speed":0.189,"climb":-0.033,"eps":0.50,"epc":128.80}
{"class":"TPV","device":"/dev/ttyAMA0","mode":3,"time":"2018-10-02T00:12:39.000Z","ept":0.005,"lat":36.622566566,"lon":127.347657408,"alt":27.733,"epx":11.982,"epy":54.337,"epv":64.400,"track":316.6343,"speed":0.037,"climb":-0.020,"eps":0.41,"epc":128.80}
{"class":"TPV","device":"/dev/ttyAMA0","mode":3,"time":"2018-10-02T00:12:40.000Z","ept":0.005,"lat":36.622563624,"lon":127.347646213,"alt":28.591,"epx":11.982,"epy":54.337,"epv":64.400,"track":334.0260,"speed":0.181,"climb":-0.017,"eps":0.49,"epc":128.80}
{"class":"TPV","device":"/dev/ttyAMA0","mode":3,"time":"2018-10-02T00:12:41.000Z","ept":0.005,"lat":36.622562251,"lon":127.347650097,"alt":28.260,"epx":11.982,"epy":54.337,"epv":64.400,"track":329.0402,"speed":0.216,"climb":-0.031,"eps":0.48,"epc":128.80}
{"class":"TPV","device":"/dev/ttyAMA0","mode":3,"time":"2018-10-02T00:12:42.000Z","ept":0.005,"lat":36.622558631,"lon":127.347646278,"alt":28.498,"epx":11.982,"epy":54.337,"epv":64.400,"track":332.3251,"speed":0.187,"climb":-0.022,"eps":0.48,"epc":128.80}
{"class":"TPV","device":"/dev/ttyAMA0","mode":3,"time":"2018-10-02T00:12:43.000Z","ept":0.005,"lat":36.622556648,"lon":127.347644952,"alt":28.426,"epx":11.982,"epy":54.337,"epv":64.400,"track":331.1406,"speed":0.180,"climb":-0.028,"eps":0.48,"epc":128.80}
{"class":"TPV","device":"/dev/ttyAMA0","mode":3,"time":"2018-10-02T00:12:44.000Z","ept":0.005,"lat":36.622555582,"lon":127.347652375,"alt":27.747,"epx":11.982,"epy":54.337,"epv":64.400,"track":343.8300,"speed":0.084,"climb":-0.025,"eps":0.48,"epc":128.80}
{"class":"TPV","device":"/dev/ttyAMA0","mode":3,"time":"2018-10-02T00:12:45.000Z","ept":0.005,"lat":36.622554731,"lon":127.347651173,"alt":27.606,"epx":11.982,"epy":54.337,"epv":64.400,"track":324.5897,"speed":0.144,"climb":-0.023,"eps":0.47,"epc":128.80}
{"class":"TPV","device":"/dev/ttyAMA0","mode":3,"time":"2018-10-02T00:12:46.000Z","ept":0.005,"lat":36.622554815,"lon":127.347658736,"alt":26.939,"epx":11.982,"epy":54.337,"epv":64.400,"track":336.5621,"speed":0.074,"climb":-0.024,"eps":0.47,"epc":128.80}
{"class":"TPV","device":"/dev/ttyAMA0","mode":3,"time":"2018-10-02T00:12:47.000Z","ept":0.005,"lat":36.622552891,"lon":127.347657813,"alt":26.874,"epx":11.982,"epy":54.337,"epv":64.400,"track":111.0972,"speed":0.084,"climb":-0.027,"eps":0.47,"epc":128.80}
{"class":"SKY","device":"/dev/ttyAMA0","xdop":0.80,"ydop":3.62,"vdop":2.80,"tdop":2.19,"hdop":1.98,"gdop":4.07,"pdop":3.43,"satellites":[{"PRN":1,"el":35,"az":50,"ss":26,"used":true},{"PRN":17,"el":56,"az":327,"ss":28,"used":true},{"PRN":19,"el":30,"az":306,"ss":29,"used":true},{"PRN":22,"el":43,"az":59,"ss":9,"used":false},{"PRN":74,"el":39,"az":257,"ss":32,"used":true},{"PRN":75,"el":22,"az":319,"ss":31,"used":true},{"PRN":84,"el":51,"az":350,"ss":22,"used":false},{"PRN":85,"el":18,"az":293,"ss":34,"used":true},{"PRN":255,"el":-91,"az":0,"ss":16,"used":false}]}
{"class":"TPV","device":"/dev/ttyAMA0","mode":3,"time":"2018-10-02T00:12:48.000Z","ept":0.005,"lat":36.622546369,"lon":127.347650535,"alt":27.379,"epx":11.982,"epy":54.337,"epv":64.400,"track":151.5212,"speed":0.133,"climb":-0.027,"eps":0.50,"epc":128.80}
{"class":"TPV","device":"/dev/ttyAMA0","mode":3,"time":"2018-10-02T00:12:49.000Z","ept":0.005,"lat":36.622543113,"lon":127.347663812,"alt":26.876,"epx":11.982,"epy":54.337,"epv":64.400,"track":141.0020,"speed":0.133,"climb":-0.029,"eps":0.48,"epc":128.80}
{"class":"TPV","device":"/dev/ttyAMA0","mode":3,"time":"2018-10-02T00:12:50.000Z","ept":0.005,"lat":36.622538963,"lon":127.347663508,"alt":27.009,"epx":11.982,"epy":54.337,"epv":64.400,"track":144.6470,"speed":0.175,"climb":-0.026,"eps":0.51,"epc":128.80}
{"class":"TPV","device":"/dev/ttyAMA0","mode":3,"time":"2018-10-02T00:12:51.000Z","ept":0.005,"lat":36.622532386,"lon":127.347664212,"alt":26.918,"epx":11.982,"epy":54.337,"epv":64.400,"track":121.5887,"speed":0.408,"climb":-0.048,"eps":0.51,"epc":128.80}
{"class":"TPV","device":"/dev/ttyAMA0","mode":3,"time":"2018-10-02T00:12:52.000Z","ept":0.005,"lat":36.622527835,"lon":127.347668658,"alt":26.592,"epx":11.982,"epy":54.337,"epv":64.400,"track":127.4415,"speed":0.347,"climb":-0.052,"eps":0.54,"epc":128.80}
{"class":"TPV","device":"/dev/ttyAMA0","mode":3,"time":"2018-10-02T00:12:53.000Z","ept":0.005,"lat":36.622525735,"lon":127.347678005,"alt":26.101,"epx":11.982,"epy":54.337,"epv":64.400,"track":141.8494,"speed":0.210,"climb":-0.046,"eps":0.50,"epc":128.80}
{"class":"TPV","device":"/dev/ttyAMA0","mode":3,"time":"2018-10-02T00:12:54.000Z","ept":0.005,"lat":36.622521095,"lon":127.347668852,"alt":26.727,"epx":11.982,"epy":54.337,"epv":64.400,"track":151.0589,"speed":0.111,"climb":-0.037,"eps":0.50,"epc":128.80}
{"class":"TPV","device":"/dev/ttyAMA0","mode":3,"time":"2018-10-02T00:12:55.000Z","ept":0.005,"lat":36.622517890,"lon":127.347668066,"alt":26.803,"epx":11.982,"epy":54.337,"epv":64.400,"track":156.9544,"speed":0.076,"climb":-0.039,"eps":0.49,"epc":128.80}
{"class":"TPV","device":"/dev/ttyAMA0","mode":3,"time":"2018-10-02T00:12:56.000Z","ept":0.005,"lat":36.622514356,"lon":127.347661574,"alt":27.213,"epx":11.982,"epy":54.337,"epv":64.400,"track":101.8878,"speed":0.025,"climb":-0.043,"eps":0.31,"epc":128.80}
{"class":"TPV","device":"/dev/ttyAMA0","mode":3,"time":"2018-10-02T00:12:57.000Z","ept":0.005,"lat":36.622512424,"lon":127.347660396,"alt":27.267,"epx":11.982,"epy":54.337,"epv":64.400,"track":323.3941,"speed":0.103,"climb":-0.044,"eps":0.45,"epc":128.80}
{"class":"SKY","device":"/dev/ttyAMA0","xdop":0.80,"ydop":3.62,"vdop":2.80,"tdop":2.09,"hdop":1.85,"gdop":3.95,"pdop":3.35,"satellites":[{"PRN":1,"el":34,"az":50,"ss":26,"used":true},{"PRN":11,"el":26,"az":73,"ss":21,"used":false},{"PRN":17,"el":56,"az":327,"ss":28,"used":true},{"PRN":19,"el":30,"az":306,"ss":29,"used":true},{"PRN":22,"el":43,"az":59,"ss":21,"used":true},{"PRN":74,"el":39,"az":257,"ss":33,"used":true},{"PRN":75,"el":22,"az":319,"ss":27,"used":true},{"PRN":84,"el":51,"az":350,"ss":21,"used":false},{"PRN":85,"el":18,"az":293,"ss":34,"used":true},{"PRN":255,"el":-91,"az":0,"ss":18,"used":false}]}
{"class":"TPV","device":"/dev/ttyAMA0","mode":3,"time":"2018-10-02T00:12:58.000Z","ept":0.005,"lat":36.622511812,"lon":127.347673431,"alt":26.319,"epx":11.982,"epy":54.337,"epv":64.400,"track":308.3705,"speed":0.152,"climb":-0.043,"eps":0.43,"epc":128.80}
{"class":"TPV","device":"/dev/ttyAMA0","mode":3,"time":"2018-10-02T00:12:59.000Z","ept":0.005,"lat":36.622510274,"lon":127.347676366,"alt":26.113,"epx":11.982,"epy":54.337,"epv":64.400,"track":320.0714,"speed":0.167,"climb":-0.038,"eps":0.46,"epc":128.80}
{"class":"TPV","device":"/dev/ttyAMA0","mode":3,"time":"2018-10-02T00:13:00.000Z","ept":0.005,"lat":36.622510895,"lon":127.347688064,"alt":25.215,"epx":11.982,"epy":54.337,"epv":64.400,"track":309.1787,"speed":0.084,"climb":-0.038,"eps":0.45,"epc":128.80}
{"class":"TPV","device":"/dev/ttyAMA0","mode":3,"time":"2018-10-02T00:13:01.000Z","ept":0.005,"lat":36.622510639,"lon":127.347693813,"alt":24.868,"epx":11.982,"epy":54.337,"epv":64.400,"track":113.1180,"speed":0.148,"climb":-0.039,"eps":0.50,"epc":128.80}
{"class":"TPV","device":"/dev/ttyAMA0","mode":3,"time":"2018-10-02T00:13:02.000Z","ept":0.005,"lat":36.622508631,"lon":127.347677996,"alt":26.006,"epx":11.982,"epy":54.337,"epv":64.400,"track":100.2125,"speed":0.077,"climb":-0.032,"eps":0.50,"epc":128.80}
{"class":"TPV","device":"/dev/ttyAMA0","mode":3,"time":"2018-10-02T00:13:03.000Z","ept":0.005,"lat":36.622509541,"lon":127.347686886,"alt":25.317,"epx":11.982,"epy":54.337,"epv":64.400,"track":294.9718,"speed":0.110,"climb":-0.029,"eps":0.51,"epc":128.80}
{"class":"TPV","device":"/dev/ttyAMA0","mode":3,"time":"2018-10-02T00:13:04.000Z","ept":0.005,"lat":36.622508138,"lon":127.347672975,"alt":26.432,"epx":11.982,"epy":54.337,"epv":64.400,"track":331.4120,"speed":0.095,"climb":-0.028,"eps":0.53,"epc":128.80}
{"class":"TPV","device":"/dev/ttyAMA0","mode":3,"time":"2018-10-02T00:13:05.000Z","ept":0.005,"lat":36.622508548,"lon":127.347671684,"alt":26.387,"epx":11.982,"epy":54.337,"epv":64.400,"track":39.4837,"speed":0.007,"climb":-0.024,"eps":0.29,"epc":128.80}
{"class":"TPV","device":"/dev/ttyAMA0","mode":3,"time":"2018-10-02T00:13:06.000Z","ept":0.005,"lat":36.622509086,"lon":127.347674184,"alt":26.190,"epx":11.982,"epy":54.337,"epv":64.400,"track":61.9674,"speed":0.175,"climb":-0.027,"eps":0.58,"epc":128.80}
{"class":"TPV","device":"/dev/ttyAMA0","mode":3,"time":"2018-10-02T00:13:07.000Z","ept":0.005,"lat":36.622508947,"lon":127.347677489,"alt":25.942,"epx":11.982,"epy":54.337,"epv":64.400,"track":79.9004,"speed":0.132,"climb":-0.031,"eps":0.52,"epc":128.80}
{"class":"SKY","device":"/dev/ttyAMA0","xdop":0.80,"ydop":3.62,"vdop":2.80,"tdop":2.09,"hdop":1.84,"gdop":3.95,"pdop":3.35,"satellites":[{"PRN":1,"el":34,"az":50,"ss":25,"used":true},{"PRN":11,"el":26,"az":73,"ss":16,"used":false},{"PRN":17,"el":56,"az":327,"ss":27,"used":true},{"PRN":19,"el":30,"az":306,"ss":26,"used":true},{"PRN":22,"el":43,"az":59,"ss":19,"used":true},{"PRN":68,"el":36,"az":60,"ss":19,"used":false},{"PRN":74,"el":39,"az":257,"ss":31,"used":true},{"PRN":75,"el":22,"az":319,"ss":26,"used":true},{"PRN":84,"el":51,"az":350,"ss":21,"used":false},{"PRN":85,"el":18,"az":293,"ss":27,"used":true},{"PRN":255,"el":-91,"az":0,"ss":25,"used":false}]}
{"class":"TPV","device":"/dev/ttyAMA0","mode":3,"time":"2018-10-02T00:13:08.000Z","ept":0.005,"lat":36.622509429,"lon":127.347672774,"alt":26.239,"epx":11.982,"epy":54.337,"epv":64.400,"track":79.6447,"speed":0.047,"climb":-0.028,"eps":0.49,"epc":128.80}
{"class":"TPV","device":"/dev/ttyAMA0","mode":3,"time":"2018-10-02T00:13:09.000Z","ept":0.005,"lat":36.622509057,"lon":127.347673473,"alt":26.127,"epx":11.982,"epy":54.337,"epv":64.400,"track":125.1738,"speed":0.005,"climb":-0.030,"eps":0.34,"epc":128.80}
{"class":"TPV","device":"/dev/ttyAMA0","mode":3,"time":"2018-10-02T00:13:10.000Z","ept":0.005,"lat":36.622505488,"lon":127.347674421,"alt":26.023,"epx":11.982,"epy":54.337,"epv":64.400,"track":106.0539,"speed":0.254,"climb":-0.040,"eps":0.57,"epc":128.80}
{"class":"TPV","device":"/dev/ttyAMA0","mode":3,"time":"2018-10-02T00:13:11.000Z","ept":0.005,"lat":36.622503300,"lon":127.347672199,"alt":26.249,"epx":11.982,"epy":54.337,"epv":64.400,"track":121.4399,"speed":0.416,"climb":-0.043,"eps":0.59,"epc":128.80}
{"class":"TPV","device":"/dev/ttyAMA0","mode":3,"time":"2018-10-02T00:13:12.000Z","ept":0.005,"lat":36.622501210,"lon":127.347668756,"alt":26.661,"epx":11.982,"epy":54.337,"epv":64.400,"track":125.7659,"speed":0.479,"climb":-0.042,"eps":0.57,"epc":128.80}
{"class":"TPV","device":"/dev/ttyAMA0","mode":3,"time":"2018-10-02T00:13:13.000Z","ept":0.005,"lat":36.622499766,"lon":127.347672861,"alt":26.374,"epx":11.982,"epy":54.337,"epv":64.400,"track":127.8228,"speed":0.369,"climb":-0.048,"eps":0.56,"epc":128.80}
{"class":"TPV","device":"/dev/ttyAMA0","mode":3,"time":"2018-10-02T00:13:14.000Z","ept":0.005,"lat":36.622498647,"lon":127.347684185,"alt":25.552,"epx":11.982,"epy":54.337,"epv":64.400,"track":105.7330,"speed":0.328,"climb":-0.048,"eps":0.53,"epc":128.80}
{"class":"TPV","device":"/dev/ttyAMA0","mode":3,"time":"2018-10-02T00:13:15.000Z","ept":0.005,"lat":36.622498085,"lon":127.347679680,"alt":25.938,"epx":11.982,"epy":54.337,"epv":64.400,"track":124.7753,"speed":0.095,"climb":-0.044,"eps":0.46,"epc":128.80}
{"class":"TPV","device":"/dev/ttyAMA0","mode":3,"time":"2018-10-02T00:13:16.000Z","ept":0.005,"lat":36.622497426,"lon":127.347682136,"alt":25.935,"epx":11.982,"epy":54.337,"epv":64.170,"track":162.8055,"speed":0.108,"climb":-0.046,"eps":0.61,"epc":128.57}
{"class":"TPV","device":"/dev/ttyAMA0","mode":3,"time":"2018-10-02T00:13:17.000Z","ept":0.005,"lat":36.622494645,"lon":127.347680052,"alt":25.764,"epx":11.982,"epy":54.337,"epv":64.170,"track":178.2180,"speed":0.121,"climb":-0.055,"eps":0.54,"epc":128.34}
{"class":"SKY","device":"/dev/ttyAMA0","xdop":0.80,"ydop":3.62,"vdop":2.79,"tdop":2.09,"hdop":1.84,"gdop":3.94,"pdop":3.35,"satellites":[{"PRN":1,"el":34,"az":50,"ss":26,"used":true},{"PRN":11,"el":26,"az":73,"ss":21,"used":false},{"PRN":17,"el":56,"az":327,"ss":25,"used":true},{"PRN":19,"el":30,"az":306,"ss":30,"used":true},{"PRN":22,"el":43,"az":59,"ss":19,"used":true},{"PRN":68,"el":36,"az":60,"ss":18,"used":false},{"PRN":74,"el":39,"az":257,"ss":30,"used":true},{"PRN":75,"el":22,"az":319,"ss":27,"used":true},{"PRN":84,"el":51,"az":350,"ss":19,"used":false},{"PRN":85,"el":18,"az":293,"ss":33,"used":true},{"PRN":255,"el":-91,"az":0,"ss":21,"used":false}]}
{"class":"TPV","device":"/dev/ttyAMA0","mode":3,"time":"2018-10-02T00:13:18.000Z","ept":0.005,"lat":36.622494265,"lon":127.347681989,"alt":25.552,"epx":11.982,"epy":54.337,"epv":64.170,"track":223.0202,"speed":0.076,"climb":-0.059,"eps":0.49,"epc":128.34}
{"class":"TPV","device":"/dev/ttyAMA0","mode":3,"time":"2018-10-02T00:13:19.000Z","ept":0.005,"lat":36.622497007,"lon":127.347701989,"alt":24.439,"epx":11.982,"epy":54.337,"epv":64.170,"track":210.8591,"speed":0.058,"climb":-0.050,"eps":0.45,"epc":128.34}
{"class":"TPV","device":"/dev/ttyAMA0","mode":3,"time":"2018-10-02T00:13:20.000Z","ept":0.005,"lat":36.622496164,"lon":127.347699199,"alt":24.900,"epx":11.982,"epy":54.337,"epv":64.170,"track":134.8759,"speed":0.133,"climb":-0.059,"eps":0.51,"epc":128.34}
{"class":"TPV","device":"/dev/ttyAMA0","mode":3,"time":"2018-10-02T00:13:21.000Z","ept":0.005,"lat":36.622494710,"lon":127.347696718,"alt":25.369,"epx":11.982,"epy":54.337,"epv":64.170,"track":153.7103,"speed":0.139,"climb":-0.050,"eps":0.56,"epc":128.34}
{"class":"TPV","device":"/dev/ttyAMA0","mode":3,"time":"2018-10-02T00:13:22.000Z","ept":0.005,"lat":36.622493044,"lon":127.347696245,"alt":25.567,"epx":11.982,"epy":54.337,"epv":64.170,"track":212.5955,"speed":0.044,"climb":-0.050,"eps":0.38,"epc":128.34}
{"class":"TPV","device":"/dev/ttyAMA0","mode":3,"time":"2018-10-02T00:13:23.000Z","ept":0.005,"lat":36.622491365,"lon":127.347685181,"alt":26.572,"epx":11.982,"epy":54.337,"epv":64.170,"track":316.6606,"speed":0.133,"climb":-0.046,"eps":0.48,"epc":128.34}
{"class":"TPV","device":"/dev/ttyAMA0","mode":3,"time":"2018-10-02T00:13:24.000Z","ept":0.005,"lat":36.622491678,"lon":127.347688184,"alt":26.509,"epx":11.982,"epy":54.337,"epv":64.170,"track":329.0419,"speed":0.138,"climb":-0.042,"eps":0.48,"epc":128.34}
{"class":"TPV","device":"/dev/ttyAMA0","mode":3,"time":"2018-10-02T00:13:25.000Z","ept":0.005,"lat":36.622491710,"lon":127.347684255,"alt":27.024,"epx":11.982,"epy":54.337,"epv":64.170,"track":332.8091,"speed":0.138,"climb":-0.031,"eps":0.50,"epc":128.34}
{"class":"TPV","device":"/dev/ttyAMA0","mode":3,"time":"2018-10-02T00:13:26.000Z","ept":0.005,"lat":36.622493060,"lon":127.347681713,"alt":27.342,"epx":11.982,"epy":54.337,"epv":64.170,"track":344.3535,"speed":0.196,"climb":-0.020,"eps":0.56,"epc":128.34}
{"class":"TPV","device":"/dev/ttyAMA0","mode":3,"time":"2018-10-02T00:13:27.000Z","ept":0.005,"lat":36.622494673,"lon":127.347686942,"alt":26.916,"epx":11.982,"epy":54.337,"epv":64.170,"track":327.0935,"speed":0.201,"climb":-0.025,"eps":0.54,"epc":128.34}
{"class":"SKY","device":"/dev/ttyAMA0","xdop":0.80,"ydop":3.62,"vdop":2.79,"tdop":2.08,"hdop":1.84,"gdop":3.94,"pdop":3.34,"satellites":[{"PRN":1,"el":34,"az":50,"ss":25,"used":true},{"PRN":11,"el":26,"az":73,"ss":22,"used":false},{"PRN":17,"el":56,"az":327,"ss":23,"used":true},{"PRN":19,"el":30,"az":306,"ss":31,"used":true},{"PRN":22,"el":43,"az":59,"ss":19,"used":true},{"PRN":68,"el":36,"az":60,"ss":18,"used":false},{"PRN":74,"el":39,"az":257,"ss":31,"used":true},{"PRN":75,"el":22,"az":319,"ss":27,"used":true},{"PRN":83,"el":27,"az":63,"ss":18,"used":false},{"PRN":84,"el":51,"az":350,"ss":20,"used":false},{"PRN":85,"el":18,"az":293,"ss":32,"used":true},{"PRN":255,"el":-91,"az":0,"ss":22,"used":false}]}
{"class":"TPV","device":"/dev/ttyAMA0","mode":3,"time":"2018-10-02T00:13:28.000Z","ept":0.005,"lat":36.622496603,"lon":127.347682843,"alt":27.182,"epx":11.982,"epy":54.337,"epv":64.170,"track":324.8582,"speed":0.286,"climb":-0.030,"eps":0.60,"epc":128.34}
{"class":"TPV","device":"/dev/ttyAMA0","mode":3,"time":"2018-10-02T00:13:29.000Z","ept":0.005,"lat":36.622496999,"lon":127.347677992,"alt":27.491,"epx":11.982,"epy":54.337,"epv":64.170,"track":323.3619,"speed":0.179,"climb":-0.026,"eps":0.57,"epc":128.34}
{"class":"TPV","device":"/dev/ttyAMA0","mode":3,"time":"2018-10-02T00:13:30.000Z","ept":0.005,"lat":36.622497920,"lon":127.347683055,"alt":27.136,"epx":11.982,"epy":54.337,"epv":64.170,"track":100.8130,"speed":0.137,"climb":-0.033,"eps":0.51,"epc":128.34}
{"class":"TPV","device":"/dev/ttyAMA0","mode":3,"time":"2018-10-02T00:13:31.000Z","ept":0.005,"lat":36.622500820,"lon":127.347687754,"alt":27.038,"epx":11.982,"epy":54.337,"epv":64.170,"track":96.3962,"speed":0.324,"climb":-0.018,"eps":0.53,"epc":128.34}
{"class":"TPV","device":"/dev/ttyAMA0","mode":3,"time":"2018-10-02T00:13:32.000Z","ept":0.005,"lat":36.622500238,"lon":127.347686601,"alt":27.158,"epx":11.982,"epy":54.337,"epv":64.170,"track":105.8410,"speed":0.505,"climb":-0.033,"eps":0.54,"epc":128.34}
{"class":"TPV","device":"/dev/ttyAMA0","mode":3,"time":"2018-10-02T00:13:33.000Z","ept":0.005,"lat":36.622500764,"lon":127.347692532,"alt":26.828,"epx":11.982,"epy":54.337,"epv":64.170,"track":110.9949,"speed":0.445,"climb":-0.037,"eps":0.54,"epc":128.34}
{"class":"TPV","device":"/dev/ttyAMA0","mode":3,"time":"2018-10-02T00:13:34.000Z","ept":0.005,"lat":36.622503321,"lon":127.347707780,"alt":25.860,"epx":11.982,"epy":54.337,"epv":64.170,"track":119.7270,"speed":0.297,"climb":-0.037,"eps":0.55,"epc":128.34}
{"class":"TPV","device":"/dev/ttyAMA0","mode":3,"time":"2018-10-02T00:13:35.000Z","ept":0.005,"lat":36.622502033,"lon":127.347696603,"alt":26.605,"epx":11.982,"epy":54.337,"epv":64.170,"track":133.0977,"speed":0.120,"climb":-0.040,"eps":0.55,"epc":128.34}
{"class":"TPV","device":"/dev/ttyAMA0","mode":3,"time":"2018-10-02T00:13:36.000Z","ept":0.005,"lat":36.622503762,"lon":127.347712083,"alt":25.761,"epx":11.982,"epy":54.337,"epv":64.170,"track":126.4771,"speed":0.117,"climb":-0.041,"eps":0.53,"epc":128.34}
{"class":"TPV","device":"/dev/ttyAMA0","mode":3,"time":"2018-10-02T00:13:37.000Z","ept":0.005,"lat":36.622502958,"lon":127.347705399,"alt":26.568,"epx":11.982,"epy":54.337,"epv":64.170,"track":111.6544,"speed":0.090,"climb":-0.039,"eps":0.52,"epc":128.34}
{"class":"SKY","device":"/dev/ttyAMA0","xdop":0.80,"ydop":3.62,"vdop":2.79,"tdop":2.08,"hdop":1.83,"gdop":3.93,"pdop":3.34,"satellites":[{"PRN":1,"el":34,"az":50,"ss":25,"used":true},{"PRN":11,"el":26,"az":73,"ss":21,"used":false},{"PRN":17,"el":56,"az":327,"ss":22,"used":true},{"PRN":19,"el":30,"az":306,"ss":31,"used":true},{"PRN":22,"el":43,"az":59,"ss":19,"used":true},{"PRN":68,"el":36,"az":60,"ss":16,"used":false},{"PRN":74,"el":39,"az":257,"ss":30,"used":true},{"PRN":75,"el":22,"az":319,"ss":27,"used":true},{"PRN":83,"el":27,"az":64,"ss":19,"used":false},{"PRN":84,"el":51,"az":351,"ss":20,"used":false},{"PRN":85,"el":18,"az":293,"ss":32,"used":true},{"PRN":255,"el":-91,"az":0,"ss":20,"used":false}]}
{"class":"TPV","device":"/dev/ttyAMA0","mode":3,"time":"2018-10-02T00:13:38.000Z","ept":0.005,"lat":36.622500990,"lon":127.347701346,"alt":27.080,"epx":11.982,"epy":54.337,"epv":64.170,"track":191.7313,"speed":0.190,"climb":-0.034,"eps":0.67,"epc":128.34}
{"class":"TPV","device":"/dev/ttyAMA0","mode":3,"time":"2018-10-02T00:13:39.000Z","ept":0.005,"lat":36.622501184,"lon":127.347696073,"alt":27.352,"epx":11.982,"epy":54.337,"epv":64.170,"track":189.3497,"speed":0.075,"climb":-0.035,"eps":0.53,"epc":128.34}
{"class":"TPV","device":"/dev/ttyAMA0","mode":3,"time":"2018-10-02T00:13:40.000Z","ept":0.005,"lat":36.622501466,"lon":127.347691199,"alt":27.964,"epx":11.982,"epy":54.337,"epv":64.170,"track":122.5540,"speed":0.121,"climb":-0.030,"eps":0.53,"epc":128.34}
{"class":"TPV","device":"/dev/ttyAMA0","mode":3,"time":"2018-10-02T00:13:41.000Z","ept":0.005,"lat":36.622505371,"lon":127.347709478,"alt":26.644,"epx":11.982,"epy":54.337,"epv":64.170,"track":128.1226,"speed":0.198,"climb":-0.037,"eps":0.54,"epc":128.34}
{"class":"TPV","device":"/dev/ttyAMA0","mode":3,"time":"2018-10-02T00:13:42.000Z","ept":0.005,"lat":36.622507683,"lon":127.347713339,"alt":26.332,"epx":11.982,"epy":54.337,"epv":64.170,"track":127.2816,"speed":0.281,"climb":-0.039,"eps":0.53,"epc":128.34}
{"class":"TPV","device":"/dev/ttyAMA0","mode":3,"time":"2018-10-02T00:13:43.000Z","ept":0.005,"lat":36.622506880,"lon":127.347709859,"alt":26.753,"epx":11.982,"epy":54.337,"epv":64.170,"track":127.2816,"speed":0.281,"climb":-0.039,"eps":0.54,"epc":128.34}
{"class":"TPV","device":"/dev/ttyAMA0","mode":3,"time":"2018-10-02T00:13:44.000Z","ept":0.005,"lat":36.622507118,"lon":127.347710853,"alt":26.936,"epx":11.982,"epy":54.337,"epv":64.170,"track":132.8305,"speed":0.193,"climb":-0.041,"eps":0.54,"epc":128.34}
{"class":"TPV","device":"/dev/ttyAMA0","mode":3,"time":"2018-10-02T00:13:45.000Z","ept":0.005,"lat":36.622509773,"lon":127.347715346,"alt":27.177,"epx":11.982,"epy":54.337,"epv":64.170,"track":312.4990,"speed":0.046,"climb":-0.025,"eps":0.45,"epc":128.34}
{"class":"TPV","device":"/dev/ttyAMA0","mode":3,"time":"2018-10-02T00:13:46.000Z","ept":0.005,"lat":36.622511988,"lon":127.347713582,"alt":27.617,"epx":11.982,"epy":54.337,"epv":64.170,"track":323.1644,"speed":0.165,"climb":-0.027,"eps":0.53,"epc":128.34}
{"class":"TPV","device":"/dev/ttyAMA0","mode":3,"time":"2018-10-02T00:13:47.000Z","ept":0.005,"lat":36.622514950,"lon":127.347715413,"alt":27.594,"epx":11.982,"epy":54.337,"epv":64.170,"track":304.0593,"speed":0.231,"climb":-0.023,"eps":0.54,"epc":128.34}
{"class":"SKY","device":"/dev/ttyAMA0","xdop":0.80,"ydop":3.62,"vdop":2.79,"tdop":2.08,"hdop":1.83,"gdop":3.93,"pdop":3.34,"satellites":[{"PRN":1,"el":34,"az":50,"ss":24,"used":true},{"PRN":11,"el":26,"az":73,"ss":22,"used":false},{"PRN":17,"el":56,"az":327,"ss":25,"used":true},{"PRN":19,"el":30,"az":306,"ss":30,"used":true},{"PRN":22,"el":42,"az":59,"ss":19,"used":true},{"PRN":68,"el":36,"az":60,"ss":18,"used":false},{"PRN":74,"el":39,"az":257,"ss":30,"used":true},{"PRN":75,"el":22,"az":319,"ss":28,"used":true},{"PRN":83,"el":27,"az":64,"ss":18,"used":false},{"PRN":84,"el":51,"az":351,"ss":19,"used":false},{"PRN":85,"el":18,"az":293,"ss":31,"used":true},{"PRN":255,"el":-91,"az":0,"ss":20,"used":false}]}
{"class":"TPV","device":"/dev/ttyAMA0","mode":3,"time":"2018-10-02T00:13:48.000Z","ept":0.005,"lat":36.622517665,"lon":127.347715601,"alt":27.708,"epx":11.982,"epy":54.337,"epv":64.170,"track":307.3613,"speed":0.271,"climb":-0.020,"eps":0.55,"epc":128.34}
{"class":"TPV","device":"/dev/ttyAMA0","mode":3,"time":"2018-10-02T00:13:49.000Z","ept":0.005,"lat":36.622518452,"lon":127.347704890,"alt":28.680,"epx":11.982,"epy":54.337,"epv":64.170,"track":313.6906,"speed":0.314,"climb":-0.023,"eps":0.55,"epc":128.34}
{"class":"TPV","device":"/dev/ttyAMA0","mode":3,"time":"2018-10-02T00:13:50.000Z","ept":0.005,"lat":36.622521703,"lon":127.347701564,"alt":29.167,"epx":11.982,"epy":54.337,"epv":64.170,"track":322.0450,"speed":0.236,"climb":-0.015,"eps":0.59,"epc":128.34}
{"class":"TPV","device":"/dev/ttyAMA0","mode":3,"time":"2018-10-02T00:13:51.000Z","ept":0.005,"lat":36.622524239,"lon":127.347707457,"alt":28.906,"epx":11.982,"epy":54.337,"epv":64.170,"track":337.7368,"speed":0.052,"climb":-0.014,"eps":0.56,"epc":128.34}
{"class":"TPV","device":"/dev/ttyAMA0","mode":3,"time":"2018-10-02T00:13:52.000Z","ept":0.005,"lat":36.622528487,"lon":127.347714331,"alt":28.540,"epx":11.982,"epy":54.337,"epv":64.170,"track":340.6704,"speed":0.030,"climb":-0.004,"eps":0.54,"epc":128.34}
{"class":"TPV","device":"/dev/ttyAMA0","mode":3,"time":"2018-10-02T00:13:53.000Z","ept":0.005,"lat":36.622526261,"lon":127.347699468,"alt":29.459,"epx":11.982,"epy":54.337,"epv":64.170,"track":318.4493,"speed":0.072,"climb":-0.005,"eps":0.54,"epc":128.34}
{"class":"TPV","device":"/dev/ttyAMA0","mode":3,"time":"2018-10-02T00:13:54.000Z","ept":0.005,"lat":36.622526639,"lon":127.347693428,"alt":29.838,"epx":11.982,"epy":54.337,"epv":64.170,"track":126.5368,"speed":0.074,"climb":-0.007,"eps":0.55,"epc":128.34}
{"class":"TPV","device":"/dev/ttyAMA0","mode":3,"time":"2018-10-02T00:13:55.000Z","ept":0.005,"lat":36.622529300,"lon":127.347706194,"alt":28.871,"epx":11.982,"epy":54.337,"epv":64.170,"track":104.3260,"speed":0.330,"climb":-0.008,"eps":0.57,"epc":128.34}
{"class":"TPV","device":"/dev/ttyAMA0","mode":3,"time":"2018-10-02T00:13:56.000Z","ept":0.005,"lat":36.622532390,"lon":127.347719541,"alt":27.957,"epx":11.982,"epy":54.337,"epv":64.170,"track":113.6128,"speed":0.434,"climb":-0.018,"eps":0.56,"epc":128.34}
{"class":"TPV","device":"/dev/ttyAMA0","mode":3,"time":"2018-10-02T00:13:57.000Z","ept":0.005,"lat":36.622530517,"lon":127.347702251,"alt":29.075,"epx":11.982,"epy":54.337,"epv":64.170,"track":110.9486,"speed":0.447,"climb":-0.020,"eps":0.57,"epc":128.34}
{"class":"SKY","device":"/dev/ttyAMA0","xdop":0.80,"ydop":3.62,"vdop":2.79,"tdop":2.07,"hdop":1.82,"gdop":3.93,"pdop":3.33,"satellites":[{"PRN":1,"el":34,"az":50,"ss":18,"used":true},{"PRN":11,"el":26,"az":73,"ss":23,"used":false},{"PRN":17,"el":56,"az":327,"ss":26,"used":true},{"PRN":19,"el":30,"az":306,"ss":30,"used":true},{"PRN":22,"el":42,"az":59,"ss":19,"used":true},{"PRN":68,"el":36,"az":60,"ss":15,"used":false},{"PRN":74,"el":39,"az":257,"ss":29,"used":true},{"PRN":75,"el":22,"az":319,"ss":28,"used":true},{"PRN":83,"el":27,"az":64,"ss":16,"used":false},{"PRN":84,"el":51,"az":351,"ss":24,"used":false},{"PRN":85,"el":18,"az":293,"ss":32,"used":true},{"PRN":255,"el":-91,"az":0,"ss":20,"used":false}]}
{"class":"TPV","device":"/dev/ttyAMA0","mode":3,"time":"2018-10-02T00:13:58.000Z","ept":0.005,"lat":36.622532536,"lon":127.347717588,"alt":28.069,"epx":11.982,"epy":54.337,"epv":64.170,"track":102.5859,"speed":0.346,"climb":-0.033,"eps":0.58,"epc":128.34}
{"class":"TPV","device":"/dev/ttyAMA0","mode":3,"time":"2018-10-02T00:13:59.000Z","ept":0.005,"lat":36.622534379,"lon":127.347701964,"alt":29.353,"epx":11.982,"epy":54.337,"epv":64.170,"track":10.5217,"speed":0.102,"climb":-0.018,"eps":0.67,"epc":128.34}
{"class":"TPV","device":"/dev/ttyAMA0","mode":3,"time":"2018-10-02T00:14:00.000Z","ept":0.005,"lat":36.622534437,"lon":127.347709080,"alt":28.976,"epx":11.982,"epy":54.337,"epv":64.170,"track":302.9806,"speed":0.102,"climb":-0.024,"eps":0.61,"epc":128.34}
{"class":"TPV","device":"/dev/ttyAMA0","mode":3,"time":"2018-10-02T00:14:01.000Z","ept":0.005,"lat":36.622538098,"lon":127.347719583,"alt":28.463,"epx":11.982,"epy":54.337,"epv":64.170,"track":285.9224,"speed":0.260,"climb":-0.012,"eps":0.64,"epc":128.34}
{"class":"TPV","device":"/dev/ttyAMA0","mode":3,"time":"2018-10-02T00:14:02.000Z","ept":0.005,"lat":36.622540121,"lon":127.347716971,"alt":28.580,"epx":11.982,"epy":54.337,"epv":64.170,"track":274.8311,"speed":0.383,"climb":-0.010,"eps":0.64,"epc":128.34}
{"class":"TPV","device":"/dev/ttyAMA0","mode":3,"time":"2018-10-02T00:14:03.000Z","ept":0.005,"lat":36.622538973,"lon":127.347700932,"alt":29.472,"epx":11.982,"epy":54.337,"epv":64.170,"track":279.5389,"speed":0.492,"climb":-0.009,"eps":0.60,"epc":128.34}
{"class":"TPV","device":"/dev/ttyAMA0","mode":3,"time":"2018-10-02T00:14:04.000Z","ept":0.005,"lat":36.622542026,"lon":127.347702494,"alt":29.167,"epx":11.982,"epy":54.337,"epv":64.170,"track":277.1056,"speed":0.226,"climb":-0.004,"eps":0.59,"epc":128.34}
{"class":"TPV","device":"/dev/ttyAMA0","mode":3,"time":"2018-10-02T00:14:05.000Z","ept":0.005,"lat":36.622544402,"lon":127.347700120,"alt":29.114,"epx":11.982,"epy":54.337,"epv":64.170,"track":262.6798,"speed":0.157,"climb":-0.007,"eps":0.58,"epc":128.34}
{"class":"TPV","device":"/dev/ttyAMA0","mode":3,"time":"2018-10-02T00:14:06.000Z","ept":0.005,"lat":36.622545148,"lon":127.347689056,"alt":29.724,"epx":11.982,"epy":54.337,"epv":64.170,"track":284.5802,"speed":0.301,"climb":-0.001,"eps":0.58,"epc":128.34}
{"class":"TPV","device":"/dev/ttyAMA0","mode":3,"time":"2018-10-02T00:14:07.000Z","ept":0.005,"lat":36.622546662,"lon":127.347679531,"alt":30.151,"epx":11.982,"epy":54.337,"epv":64.170,"track":284.7995,"speed":0.422,"climb":0.006,"eps":0.59,"epc":128.34}
{"class":"SKY","device":"/dev/ttyAMA0","xdop":0.80,"ydop":3.62,"vdop":2.79,"tdop":2.07,"hdop":1.82,"gdop":3.92,"pdop":3.33,"satellites":[{"PRN":1,"el":34,"az":50,"ss":21,"used":true},{"PRN":17,"el":56,"az":327,"ss":19,"used":true},{"PRN":19,"el":30,"az":306,"ss":30,"used":true},{"PRN":22,"el":42,"az":59,"ss":19,"used":true},{"PRN":68,"el":36,"az":59,"ss":14,"used":false},{"PRN":74,"el":39,"az":257,"ss":29,"used":true},{"PRN":75,"el":22,"az":319,"ss":27,"used":true},{"PRN":84,"el":51,"az":351,"ss":21,"used":false},{"PRN":85,"el":18,"az":293,"ss":32,"used":true},{"PRN":255,"el":-91,"az":0,"ss":18,"used":false}]}
{"class":"TPV","device":"/dev/ttyAMA0","mode":3,"time":"2018-10-02T00:14:08.000Z","ept":0.005,"lat":36.622548262,"lon":127.347679786,"alt":30.164,"epx":11.982,"epy":54.337,"epv":64.170,"track":291.0539,"speed":0.370,"climb":0.006,"eps":0.58,"epc":128.34}
{"class":"TPV","device":"/dev/ttyAMA0","mode":3,"time":"2018-10-02T00:14:09.000Z","ept":0.005,"lat":36.622549503,"lon":127.347680974,"alt":29.928,"epx":11.982,"epy":54.337,"epv":64.170,"track":282.1590,"speed":0.401,"climb":0.004,"eps":0.58,"epc":128.34}
{"class":"TPV","device":"/dev/ttyAMA0","mode":3,"time":"2018-10-02T00:14:10.000Z","ept":0.005,"lat":36.622551743,"lon":127.347680391,"alt":29.828,"epx":11.982,"epy":54.337,"epv":64.170,"track":280.8959,"speed":0.478,"climb":0.012,"eps":0.58,"epc":128.34}
{"class":"TPV","device":"/dev/ttyAMA0","mode":3,"time":"2018-10-02T00:14:11.000Z","ept":0.005,"lat":36.622548064,"lon":127.347654357,"alt":31.417,"epx":11.982,"epy":54.337,"epv":64.170,"track":276.4106,"speed":0.390,"climb":0.008,"eps":0.56,"epc":128.34}
{"class":"TPV","device":"/dev/ttyAMA0","mode":3,"time":"2018-10-02T00:14:12.000Z","ept":0.005,"lat":36.622549191,"lon":127.347656553,"alt":31.148,"epx":11.982,"epy":54.337,"epv":64.170,"track":264.4946,"speed":0.233,"climb":0.013,"eps":0.56,"epc":128.34}
{"class":"TPV","device":"/dev/ttyAMA0","mode":3,"time":"2018-10-02T00:14:13.000Z","ept":0.005,"lat":36.622549072,"lon":127.347666645,"alt":30.445,"epx":11.982,"epy":54.337,"epv":64.170,"track":271.9686,"speed":0.070,"climb":0.014,"eps":0.54,"epc":128.34}
{"class":"TPV","device":"/dev/ttyAMA0","mode":3,"time":"2018-10-02T00:14:14.000Z","ept":0.005,"lat":36.622546044,"lon":127.347658441,"alt":31.065,"epx":11.982,"epy":54.337,"epv":64.170,"track":127.3613,"speed":0.135,"climb":0.010,"eps":0.53,"epc":128.34}
{"class":"TPV","device":"/dev/ttyAMA0","mode":3,"time":"2018-10-02T00:14:15.000Z","ept":0.005,"lat":36.622545986,"lon":127.347662143,"alt":30.889,"epx":11.982,"epy":54.337,"epv":64.170,"track":110.3322,"speed":0.400,"climb":0.003,"eps":0.53,"epc":128.34}
{"class":"TPV","device":"/dev/ttyAMA0","mode":3,"time":"2018-10-02T00:14:16.000Z","ept":0.005,"lat":36.622545237,"lon":127.347664044,"alt":30.817,"epx":11.982,"epy":54.337,"epv":64.170,"track":116.3244,"speed":0.447,"climb":-0.001,"eps":0.51,"epc":128.34}
{"class":"TPV","device":"/dev/ttyAMA0","mode":3,"time":"2018-10-02T00:14:17.000Z","ept":0.005,"lat":36.622544256,"lon":127.347669397,"alt":30.611,"epx":11.982,"epy":54.337,"epv":64.170,"track":110.2399,"speed":0.392,"climb":-0.002,"eps":0.53,"epc":128.34}
{"class":"SKY","device":"/dev/ttyAMA0","xdop":0.80,"ydop":3.62,"vdop":2.79,"tdop":2.07,"hdop":1.82,"gdop":3.92,"pdop":3.33,"satellites":[{"PRN":1,"el":34,"az":50,"ss":25,"used":true},{"PRN":3,"el":-91,"az":0,"ss":9,"used":false},{"PRN":5,"el":-91,"az":0,"ss":22,"used":false},{"PRN":11,"el":26,"az":73,"ss":21,"used":false},{"PRN":17,"el":56,"az":327,"ss":25,"used":true},{"PRN":19,"el":30,"az":306,"ss":32,"used":true},{"PRN":22,"el":42,"az":59,"ss":25,"used":true},{"PRN":68,"el":36,"az":59,"ss":16,"used":false},{"PRN":74,"el":38,"az":256,"ss":28,"used":true},{"PRN":75,"el":22,"az":318,"ss":30,"used":true},{"PRN":84,"el":51,"az":351,"ss":23,"used":false},{"PRN":85,"el":18,"az":293,"ss":32,"used":true},{"PRN":255,"el":-91,"az":0,"ss":16,"used":false}]}
{"class":"TPV","device":"/dev/ttyAMA0","mode":3,"time":"2018-10-02T00:14:18.000Z","ept":0.005,"lat":36.622542606,"lon":127.347674559,"alt":30.522,"epx":11.982,"epy":54.337,"epv":64.170,"track":110.6376,"speed":0.337,"climb":-0.008,"eps":0.54,"epc":128.34}
{"class":"TPV","device":"/dev/ttyAMA0","mode":3,"time":"2018-10-02T00:14:19.000Z","ept":0.005,"lat":36.622540706,"lon":127.347668991,"alt":30.973,"epx":11.982,"epy":54.337,"epv":64.170,"track":113.2413,"speed":0.185,"climb":-0.003,"eps":0.54,"epc":128.34}
{"class":"TPV","device":"/dev/ttyAMA0","mode":3,"time":"2018-10-02T00:14:20.000Z","ept":0.005,"lat":36.622537654,"lon":127.347669140,"alt":31.111,"epx":11.982,"epy":54.337,"epv":64.170,"track":96.8636,"speed":0.332,"climb":-0.014,"eps":0.53,"epc":128.34}
{"class":"TPV","device":"/dev/ttyAMA0","mode":3,"time":"2018-10-02T00:14:21.000Z","ept":0.005,"lat":36.622536176,"lon":127.347674112,"alt":30.879,"epx":11.982,"epy":54.337,"epv":64.170,"track":113.8883,"speed":0.249,"climb":-0.015,"eps":0.51,"epc":128.34}
{"class":"TPV","device":"/dev/ttyAMA0","mode":3,"time":"2018-10-02T00:14:22.000Z","ept":0.005,"lat":36.622532967,"lon":127.347668509,"alt":31.391,"epx":11.982,"epy":54.337,"epv":64.170,"track":106.0846,"speed":0.302,"climb":-0.022,"eps":0.51,"epc":128.34}
{"class":"TPV","device":"/dev/ttyAMA0","mode":3,"time":"2018-10-02T00:14:23.000Z","ept":0.005,"lat":36.622531721,"lon":127.347667221,"alt":31.477,"epx":11.982,"epy":54.337,"epv":64.170,"track":171.2952,"speed":0.077,"climb":-0.014,"eps":0.56,"epc":128.34}
{"class":"TPV","device":"/dev/ttyAMA0","mode":3,"time":"2018-10-02T00:14:24.000Z","ept":0.005,"lat":36.622531183,"lon":127.347669657,"alt":31.138,"epx":11.982,"epy":54.337,"epv":64.170,"track":147.4350,"speed":0.148,"climb":-0.017,"eps":0.54,"epc":128.34}
{"class":"TPV","device":"/dev/ttyAMA0","mode":3,"time":"2018-10-02T00:14:25.000Z","ept":0.005,"lat":36.622527227,"lon":127.347660909,"alt":31.494,"epx":11.982,"epy":54.337,"epv":63.940,"track":131.9020,"speed":0.327,"climb":-0.025,"eps":0.51,"epc":128.11}
{"class":"TPV","device":"/dev/ttyAMA0","mode":3,"time":"2018-10-02T00:14:26.000Z","ept":0.005,"lat":36.622524731,"lon":127.347663289,"alt":31.146,"epx":11.982,"epy":54.337,"epv":63.940,"track":115.5458,"speed":0.407,"climb":-0.032,"eps":0.50,"epc":127.88}
{"class":"TPV","device":"/dev/ttyAMA0","mode":3,"time":"2018-10-02T00:14:27.000Z","ept":0.005,"lat":36.622526055,"lon":127.347678481,"alt":30.227,"epx":11.982,"epy":54.337,"epv":63.940,"track":115.7213,"speed":0.153,"climb":-0.028,"eps":0.49,"epc":127.88}
{"class":"SKY","device":"/dev/ttyAMA0","xdop":0.80,"ydop":3.62,"vdop":2.78,"tdop":2.06,"hdop":1.81,"gdop":3.91,"pdop":3.32,"satellites":[{"PRN":1,"el":34,"az":50,"ss":25,"used":true},{"PRN":3,"el":-91,"az":0,"ss":9,"used":false},{"PRN":5,"el":-91,"az":0,"ss":8,"used":false},{"PRN":11,"el":26,"az":73,"ss":20,"used":false},{"PRN":17,"el":56,"az":327,"ss":27,"used":true},{"PRN":19,"el":30,"az":306,"ss":31,"used":true},{"PRN":22,"el":42,"az":59,"ss":25,"used":true},{"PRN":68,"el":36,"az":59,"ss":13,"used":false},{"PRN":74,"el":38,"az":256,"ss":27,"used":true},{"PRN":75,"el":22,"az":318,"ss":29,"used":true},{"PRN":84,"el":52,"az":351,"ss":22,"used":false},{"PRN":85,"el":19,"az":294,"ss":32,"used":true},{"PRN":255,"el":-91,"az":0,"ss":21,"used":false}]}
{"class":"TPV","device":"/dev/ttyAMA0","mode":3,"time":"2018-10-02T00:14:28.000Z","ept":0.005,"lat":36.622522663,"lon":127.347673865,"alt":30.683,"epx":11.982,"epy":54.337,"epv":63.940,"track":286.0116,"speed":0.050,"climb":-0.035,"eps":0.41,"epc":127.88}
{"class":"TPV","device":"/dev/ttyAMA0","mode":3,"time":"2018-10-02T00:14:29.000Z","ept":0.005,"lat":36.622522486,"lon":127.347684948,"alt":29.872,"epx":11.982,"epy":54.337,"epv":63.940,"track":307.9409,"speed":0.159,"climb":-0.031,"eps":0.48,"epc":127.88}
{"class":"TPV","device":"/dev/ttyAMA0","mode":3,"time":"2018-10-02T00:14:30.000Z","ept":0.005,"lat":36.622520513,"lon":127.347688299,"alt":29.445,"epx":11.982,"epy":54.337,"epv":63.940,"track":311.6020,"speed":0.149,"climb":-0.032,"eps":0.48,"epc":127.88}
{"class":"TPV","device":"/dev/ttyAMA0","mode":3,"time":"2018-10-02T00:14:31.000Z","ept":0.005,"lat":36.622517932,"lon":127.347682897,"alt":29.713,"epx":11.982,"epy":54.337,"epv":63.940,"track":310.6645,"speed":0.157,"climb":-0.037,"eps":0.48,"epc":127.88}
{"class":"TPV","device":"/dev/ttyAMA0","mode":3,"time":"2018-10-02T00:14:32.000Z","ept":0.005,"lat":36.622518702,"lon":127.347694157,"alt":28.995,"epx":11.982,"epy":54.337,"epv":63.940,"track":316.3221,"speed":0.175,"climb":-0.037,"eps":0.50,"epc":127.88}
{"class":"TPV","device":"/dev/ttyAMA0","mode":3,"time":"2018-10-02T00:14:33.000Z","ept":0.005,"lat":36.622517797,"lon":127.347691381,"alt":29.264,"epx":11.982,"epy":54.337,"epv":63.940,"track":302.6923,"speed":0.272,"climb":-0.030,"eps":0.51,"epc":127.88}
{"class":"TPV","device":"/dev/ttyAMA0","mode":3,"time":"2018-10-02T00:14:34.000Z","ept":0.005,"lat":36.622516080,"lon":127.347688271,"alt":29.453,"epx":11.982,"epy":54.337,"epv":63.940,"track":308.7157,"speed":0.150,"climb":-0.026,"eps":0.52,"epc":127.88}
{"class":"TPV","device":"/dev/ttyAMA0","mode":3,"time":"2018-10-02T00:14:35.000Z","ept":0.005,"lat":36.622514387,"lon":127.347685848,"alt":29.421,"epx":11.982,"epy":54.337,"epv":63.940,"track":311.2576,"speed":0.024,"climb":-0.021,"eps":0.37,"epc":127.88}
{"class":"TPV","device":"/dev/ttyAMA0","mode":3,"time":"2018-10-02T00:14:36.000Z","ept":0.005,"lat":36.622514248,"lon":127.347694770,"alt":28.805,"epx":11.982,"epy":54.337,"epv":63.940,"track":117.8317,"speed":0.190,"climb":-0.032,"eps":0.52,"epc":127.88}
{"class":"TPV","device":"/dev/ttyAMA0","mode":3,"time":"2018-10-02T00:14:37.000Z","ept":0.005,"lat":36.622512654,"lon":127.347694298,"alt":29.009,"epx":11.982,"epy":54.337,"epv":63.940,"track":115.7038,"speed":0.177,"climb":-0.031,"eps":0.51,"epc":127.88}
{"class":"SKY","device":"/dev/ttyAMA0","xdop":0.80,"ydop":3.62,"vdop":2.78,"tdop":2.06,"hdop":1.81,"gdop":3.91,"pdop":3.32,"satellites":[{"PRN":1,"el":34,"az":50,"ss":25,"used":true},{"PRN":3,"el":-91,"az":0,"ss":8,"used":false},{"PRN":11,"el":25,"az":73,"ss":15,"used":false},{"PRN":17,"el":57,"az":328,"ss":27,"used":true},{"PRN":19,"el":31,"az":306,"ss":31,"used":true},{"PRN":22,"el":42,"az":58,"ss":23,"used":true},{"PRN":68,"el":36,"az":59,"ss":14,"used":false},{"PRN":74,"el":38,"az":256,"ss":27,"used":true},{"PRN":75,"el":22,"az":318,"ss":28,"used":true},{"PRN":84,"el":52,"az":352,"ss":21,"used":false},{"PRN":85,"el":19,"az":294,"ss":32,"used":true},{"PRN":255,"el":-91,"az":0,"ss":20,"used":false}]}
{"class":"TPV","device":"/dev/ttyAMA0","mode":3,"time":"2018-10-02T00:14:38.000Z","ept":0.005,"lat":36.622508995,"lon":127.347692245,"alt":29.254,"epx":11.982,"epy":54.337,"epv":63.940,"track":106.6130,"speed":0.225,"climb":-0.031,"eps":0.50,"epc":127.88}
{"class":"TPV","device":"/dev/ttyAMA0","mode":3,"time":"2018-10-02T00:14:39.000Z","ept":0.005,"lat":36.622506462,"lon":127.347692848,"alt":29.347,"epx":11.982,"epy":54.337,"epv":63.940,"track":123.6628,"speed":0.204,"climb":-0.032,"eps":0.54,"epc":127.88}
{"class":"TPV","device":"/dev/ttyAMA0","mode":3,"time":"2018-10-02T00:14:40.000Z","ept":0.005,"lat":36.622504754,"lon":127.347692385,"alt":29.418,"epx":11.982,"epy":54.337,"epv":63.940,"track":135.0991,"speed":0.192,"climb":-0.035,"eps":0.55,"epc":127.88}
{"class":"TPV","device":"/dev/ttyAMA0","mode":3,"time":"2018-10-02T00:14:41.000Z","ept":0.005,"lat":36.622502087,"lon":127.347691828,"alt":29.464,"epx":11.982,"epy":54.337,"epv":63.940,"track":115.8056,"speed":0.184,"climb":-0.043,"eps":0.51,"epc":127.88}
{"class":"TPV","device":"/dev/ttyAMA0","mode":3,"time":"2018-10-02T00:14:42.000Z","ept":0.005,"lat":36.622502850,"lon":127.347695582,"alt":29.266,"epx":11.982,"epy":54.337,"epv":63.940,"track":129.3110,"speed":0.093,"climb":-0.038,"eps":0.51,"epc":127.88}
{"class":"TPV","device":"/dev/ttyAMA0","mode":3,"time":"2018-10-02T00:14:43.000Z","ept":0.005,"lat":36.622502548,"lon":127.347690652,"alt":29.982,"epx":11.982,"epy":54.337,"epv":63.940,"track":193.0636,"speed":0.081,"climb":-0.029,"eps":0.55,"epc":127.88}
{"class":"TPV","device":"/dev/ttyAMA0","mode":3,"time":"2018-10-02T00:14:44.000Z","ept":0.005,"lat":36.622501874,"lon":127.347691677,"alt":29.982,"epx":11.982,"epy":54.337,"epv":63.940,"track":95.2356,"speed":0.141,"climb":-0.033,"eps":0.54,"epc":127.88}
{"class":"TPV","device":"/dev/ttyAMA0","mode":3,"time":"2018-10-02T00:14:45.000Z","ept":0.005,"lat":36.622501375,"lon":127.347696562,"alt":30.090,"epx":11.982,"epy":54.337,"epv":63.940,"track":99.0741,"speed":0.399,"climb":-0.033,"eps":0.57,"epc":127.88}
{"class":"TPV","device":"/dev/ttyAMA0","mode":3,"time":"2018-10-02T00:14:46.000Z","ept":0.005,"lat":36.622502454,"lon":127.347701268,"alt":30.046,"epx":11.982,"epy":54.337,"epv":63.940,"track":132.8865,"speed":0.427,"climb":-0.028,"eps":0.58,"epc":127.88}
{"class":"TPV","device":"/dev/ttyAMA0","mode":3,"time":"2018-10-02T00:14:47.000Z","ept":0.005,"lat":36.622502661,"lon":127.347705281,"alt":30.216,"epx":11.982,"epy":54.337,"epv":63.940,"track":111.9033,"speed":0.450,"climb":-0.026,"eps":0.63,"epc":127.88}
{"class":"SKY","device":"/dev/ttyAMA0","xdop":0.80,"ydop":3.62,"vdop":2.78,"tdop":2.06,"hdop":1.81,"gdop":3.90,"pdop":3.32,"satellites":[{"PRN":1,"el":34,"az":50,"ss":17,"used":true},{"PRN":11,"el":25,"az":73,"ss":16,"used":false},{"PRN":17,"el":57,"az":328,"ss":24,"used":true},{"PRN":19,"el":31,"az":306,"ss":31,"used":true},{"PRN":22,"el":42,"az":58,"ss":19,"used":true},{"PRN":68,"el":36,"az":59,"ss":8,"used":false},{"PRN":74,"el":38,"az":256,"ss":29,"used":true},{"PRN":75,"el":22,"az":318,"ss":32,"used":true},{"PRN":84,"el":52,"az":352,"ss":20,"used":false},{"PRN":85,"el":19,"az":294,"ss":26,"used":true},{"PRN":255,"el":-91,"az":0,"ss":22,"used":false}]}
{"class":"TPV","device":"/dev/ttyAMA0","mode":3,"time":"2018-10-02T00:14:48.000Z","ept":0.005,"lat":36.622501952,"lon":127.347714009,"alt":30.054,"epx":11.982,"epy":54.337,"epv":63.940,"track":101.6055,"speed":0.412,"climb":-0.023,"eps":0.64,"epc":127.88}
{"class":"TPV","device":"/dev/ttyAMA0","mode":3,"time":"2018-10-02T00:14:49.000Z","ept":0.005,"lat":36.622502254,"lon":127.347719126,"alt":29.824,"epx":11.982,"epy":54.337,"epv":63.940,"track":120.1399,"speed":0.265,"climb":-0.022,"eps":0.74,"epc":127.88}
{"class":"TPV","device":"/dev/ttyAMA0","mode":3,"time":"2018-10-02T00:14:50.000Z","ept":0.005,"lat":36.622500757,"lon":127.347713010,"alt":30.450,"epx":11.982,"epy":54.337,"epv":63.940,"track":109.5368,"speed":0.199,"climb":-0.028,"eps":0.77,"epc":127.88}
{"class":"TPV","device":"/dev/ttyAMA0","mode":3,"time":"2018-10-02T00:14:51.000Z","ept":0.005,"lat":36.622492215,"lon":127.347710553,"alt":31.809,"epx":11.982,"epy":54.337,"epv":63.940,"track":129.3303,"speed":0.649,"climb":-0.016,"eps":0.85,"epc":127.88}
{"class":"TPV","device":"/dev/ttyAMA0","mode":3,"time":"2018-10-02T00:14:52.000Z","ept":0.005,"lat":36.622493710,"lon":127.347712719,"alt":32.274,"epx":11.982,"epy":54.337,"epv":63.940,"track":95.9751,"speed":0.360,"climb":-0.017,"eps":0.81,"epc":127.88}
{"class":"TPV","device":"/dev/ttyAMA0","mode":3,"time":"2018-10-02T00:14:53.000Z","ept":0.005,"lat":36.622490321,"lon":127.347720392,"alt":31.941,"epx":11.982,"epy":54.337,"epv":63.940,"track":124.6583,"speed":0.531,"climb":-0.013,"eps":0.84,"epc":127.88}
{"class":"TPV","device":"/dev/ttyAMA0","mode":3,"time":"2018-10-02T00:14:54.000Z","ept":0.005,"lat":36.622495391,"lon":127.347746410,"alt":30.983,"epx":11.982,"epy":54.337,"epv":63.940,"track":77.7609,"speed":0.844,"climb":-0.023,"eps":0.63,"epc":127.88}
{"class":"TPV","device":"/dev/ttyAMA0","mode":3,"time":"2018-10-02T00:14:55.000Z","ept":0.005,"lat":36.622497810,"lon":127.347753299,"alt":31.142,"epx":11.982,"epy":54.337,"epv":63.940,"track":82.8620,"speed":0.696,"climb":-0.016,"eps":0.53,"epc":127.88}
{"class":"TPV","device":"/dev/ttyAMA0","mode":3,"time":"2018-10-02T00:14:56.000Z","ept":0.005,"lat":36.622500413,"lon":127.347757775,"alt":30.703,"epx":11.982,"epy":54.337,"epv":63.940,"track":77.9935,"speed":0.313,"climb":-0.021,"eps":0.70,"epc":127.88}
{"class":"TPV","device":"/dev/ttyAMA0","mode":3,"time":"2018-10-02T00:14:57.000Z","ept":0.005,"lat":36.622497540,"lon":127.347770905,"alt":30.109,"epx":11.982,"epy":54.337,"epv":63.940,"track":123.1656,"speed":0.267,"climb":-0.021,"eps":1.00,"epc":127.88}
{"class":"SKY","device":"/dev/ttyAMA0","xdop":0.80,"ydop":3.62,"vdop":2.78,"tdop":2.05,"hdop":1.80,"gdop":3.90,"pdop":3.31,"satellites":[{"PRN":1,"el":34,"az":50,"ss":26,"used":true},{"PRN":11,"el":25,"az":73,"ss":30,"used":false},{"PRN":17,"el":57,"az":328,"ss":23,"used":true},{"PRN":19,"el":31,"az":306,"ss":16,"used":true},{"PRN":22,"el":42,"az":58,"ss":27,"used":true},{"PRN":69,"el":40,"az":127,"ss":27,"used":false},{"PRN":74,"el":38,"az":256,"ss":18,"used":true},{"PRN":75,"el":22,"az":318,"ss":19,"used":true},{"PRN":83,"el":27,"az":64,"ss":21,"used":false},{"PRN":84,"el":52,"az":352,"ss":17,"used":false},{"PRN":85,"el":19,"az":294,"ss":19,"used":true}]}
{"class":"TPV","device":"/dev/ttyAMA0","mode":3,"time":"2018-10-02T00:14:58.000Z","ept":0.005,"lat":36.622499156,"lon":127.347769464,"alt":30.371,"epx":11.982,"epy":54.337,"epv":63.940,"track":75.2113,"speed":0.207,"climb":-0.021,"eps":0.84,"epc":127.88}
