{"class":"VERSION","release":"3.16","rev":"3.16-4","proto_major":3,"proto_minor":11}
{"class":"DEVICES","devices":[{"class":"DEVICE","path":"/dev/ttyAMA0","activated":"2018-10-01T23:30:55.635Z","native":0,"bps":9600,"parity":"N","stopbits":1,"cycle":1.00}]}
{"class":"WATCH","enable":true,"json":true,"nmea":false,"raw":0,"scaled":false,"timing":false,"split24":false,"pps":false}
{"class":"DEVICE","path":"/dev/ttyAMA0","driver":"NMEA0183","activated":"2018-10-01T23:30:56.219Z","native":0,"bps":9600,"parity":"N","stopbits":1,"cycle":1.00}
{"class":"TPV","device":"/dev/ttyAMA0","mode":1}
{"class":"TPV","device":"/dev/ttyAMA0","mode":1}
{"class":"DEVICE","path":"/dev/ttyAMA0","driver":"u-blox","activated":"2018-10-01T23:30:56.793Z","flags":1,"native":1,"bps":9600,"parity":"N","stopbits":1,"cycle":1.00,"mincycle":0.25}
{"class":"TPV","device":"/dev/ttyAMA0","mode":1,"time":"2018-10-01T23:30:59.000Z","ept":0.005}
{"class":"TPV","device":"/dev/ttyAMA0","mode":1,"time":"2018-10-01T23:31:00.000Z","ept":0.005}
{"class":"TPV","device":"/dev/ttyAMA0","mode":1,"time":"2018-10-01T23:31:01.000Z","ept":0.005}
{"class":"TPV","device":"/dev/ttyAMA0","mode":1,"time":"2018-10-01T23:31:02.000Z","ept":0.005}
{"class":"TPV","device":"/dev/ttyAMA0","mode":1,"time":"2018-10-01T23:31:03.000Z","ept":0.005}
{"class":"TPV","device":"/dev/ttyAMA0","mode":1,"time":"2018-10-01T23:31:04.000Z","ept":0.005}
{"class":"TPV","device":"/dev/ttyAMA0","mode":2,"time":"2018-10-01T23:31:03.997Z","ept":0.005,"lat":36.623565371,"lon":127.347114678,"track":132.7237,"speed":0.095,"eps":0.76}
{"class":"TPV","device":"/dev/ttyAMA0","mode":2,"time":"2018-10-01T23:31:05.000Z","ept":0.005,"lat":36.623550047,"lon":127.347092077,"track":25.4133,"speed":0.099,"eps":0.91}
{"class":"TPV","device":"/dev/ttyAMA0","mode":2,"time":"2018-10-01T23:31:06.000Z","ept":0.005,"lat":36.623545036,"lon":127.347092961,"track":169.5549,"speed":0.140,"eps":0.76}
{"class":"TPV","device":"/dev/ttyAMA0","mode":2,"time":"2018-10-01T23:31:07.000Z","ept":0.005,"lat":36.623542876,"lon":127.347089522,"track":171.5279,"speed":0.315,"eps":0.75}
{"class":"SKY","device":"/dev/ttyAMA0","vdop":1.00,"tdop":1.40,"hdop":2.48,"gdop":3.02,"pdop":2.67,"satellites":[{"PRN":1,"el":51,"az":40,"ss":27,"used":true},{"PRN":11,"el":-91,"az":0,"ss":23,"used":false},{"PRN":17,"el":-91,"az":0,"ss":27,"used":false},{"PRN":18,"el":-91,"az":0,"ss":24,"used":false},{"PRN":28,"el":77,"az":270,"ss":28,"used":true},{"PRN":75,"el":9,"az":334,"ss":29,"used":true},{"PRN":85,"el":-91,"az":0,"ss":23,"used":false},{"PRN":255,"el":-91,"az":0,"ss":21,"used":false}]}
{"class":"TPV","device":"/dev/ttyAMA0","mode":2,"time":"2018-10-01T23:31:08.000Z","ept":0.005,"lat":36.623518701,"lon":127.347100702,"track":178.5330,"speed":0.262,"eps":0.75}
{"class":"TPV","device":"/dev/ttyAMA0","mode":2,"time":"2018-10-01T23:31:09.000Z","ept":0.005,"lat":36.623517135,"lon":127.347104667,"track":342.9411,"speed":0.067,"eps":0.71}
{"class":"TPV","device":"/dev/ttyAMA0","mode":2,"time":"2018-10-01T23:31:10.000Z","ept":0.005,"lat":36.623525289,"lon":127.347102814,"track":339.9660,"speed":0.081,"eps":0.71}
{"class":"TPV","device":"/dev/ttyAMA0","mode":2,"time":"2018-10-01T23:31:11.000Z","ept":0.005,"lat":36.623494960,"lon":127.347117731,"track":223.5827,"speed":0.067,"eps":0.88}
{"class":"TPV","device":"/dev/ttyAMA0","mode":2,"time":"2018-10-01T23:31:12.000Z","ept":0.005,"lat":36.623499335,"lon":127.347117734,"track":186.4191,"speed":0.112,"eps":0.77}
{"class":"TPV","device":"/dev/ttyAMA0","mode":2,"time":"2018-10-01T23:31:13.000Z","ept":0.005,"lat":36.623518607,"lon":127.347110431,"track":122.9525,"speed":0.162,"eps":0.73}
{"class":"TPV","device":"/dev/ttyAMA0","mode":2,"time":"2018-10-01T23:31:14.000Z","ept":0.005,"lat":36.623529745,"lon":127.347109658,"track":158.4491,"speed":0.145,"eps":0.62}
{"class":"TPV","device":"/dev/ttyAMA0","mode":2,"time":"2018-10-01T23:31:15.000Z","ept":0.005,"lat":36.623558269,"lon":127.347098902,"track":223.8914,"speed":0.104,"eps":0.85}
{"class":"TPV","device":"/dev/ttyAMA0","mode":2,"time":"2018-10-01T23:31:16.000Z","ept":0.005,"lat":36.623565037,"lon":127.347101535,"track":175.3722,"speed":0.163,"eps":0.68}
{"class":"TPV","device":"/dev/ttyAMA0","mode":2,"time":"2018-10-01T23:31:17.000Z","ept":0.005,"lat":36.623550000,"lon":127.347114666,"track":188.2451,"speed":0.289,"eps":0.73}
{"class":"SKY","device":"/dev/ttyAMA0","vdop":1.00,"tdop":1.40,"hdop":2.48,"gdop":3.01,"pdop":2.67,"satellites":[{"PRN":1,"el":51,"az":40,"ss":25,"used":true},{"PRN":11,"el":-91,"az":0,"ss":16,"used":false},{"PRN":17,"el":-91,"az":0,"ss":24,"used":false},{"PRN":18,"el":-91,"az":0,"ss":21,"used":false},{"PRN":28,"el":77,"az":270,"ss":28,"used":true},{"PRN":75,"el":9,"az":334,"ss":29,"used":true},{"PRN":85,"el":-91,"az":0,"ss":22,"used":false},{"PRN":255,"el":-91,"az":0,"ss":22,"used":false}]}
{"class":"TPV","device":"/dev/ttyAMA0","mode":2,"time":"2018-10-01T23:31:18.000Z","ept":0.005,"lat":36.623518252,"lon":127.347137590,"track":116.3240,"speed":0.447,"eps":1.14}
{"class":"TPV","device":"/dev/ttyAMA0","mode":2,"time":"2018-10-01T23:31:19.000Z","ept":0.005,"lat":36.623498400,"lon":127.347152593,"track":109.0915,"speed":0.256,"eps":1.30}
{"class":"TPV","device":"/dev/ttyAMA0","mode":2,"time":"2018-10-01T23:31:20.000Z","ept":0.005,"lat":36.623519077,"lon":127.347144245,"track":89.5167,"speed":0.178,"eps":1.59}
{"class":"TPV","device":"/dev/ttyAMA0","mode":2,"time":"2018-10-01T23:31:21.000Z","ept":0.005,"lat":36.623519409,"lon":127.347152403,"track":77.6026,"speed":0.588,"eps":1.75}
{"class":"TPV","device":"/dev/ttyAMA0","mode":2,"time":"2018-10-01T23:31:22.000Z","ept":0.005,"lat":36.623509738,"lon":127.347158459,"track":85.5676,"speed":0.185,"eps":1.97}
{"class":"TPV","device":"/dev/ttyAMA0","mode":2,"time":"2018-10-01T23:31:23.000Z","ept":0.005,"lat":36.623503153,"lon":127.347160346,"track":163.5872,"speed":0.104,"eps":0.70}
{"class":"TPV","device":"/dev/ttyAMA0","mode":2,"time":"2018-10-01T23:31:24.000Z","ept":0.005,"lat":36.623508425,"lon":127.347162921,"track":87.2244,"speed":0.284,"eps":2.05}
{"class":"TPV","device":"/dev/ttyAMA0","mode":2,"time":"2018-10-01T23:31:25.000Z","ept":0.005,"lat":36.623509924,"lon":127.347172965,"track":75.7845,"speed":0.599,"eps":1.97}
{"class":"TPV","device":"/dev/ttyAMA0","mode":2,"time":"2018-10-01T23:31:26.000Z","ept":0.005,"lat":36.623544510,"lon":127.347139625,"track":227.9164,"speed":0.314,"eps":1.79}
{"class":"TPV","device":"/dev/ttyAMA0","mode":2,"time":"2018-10-01T23:31:27.000Z","ept":0.005,"lat":36.623509627,"lon":127.347168653,"track":73.5822,"speed":0.255,"eps":1.93}
{"class":"SKY","device":"/dev/ttyAMA0","vdop":1.00,"tdop":1.40,"hdop":2.47,"gdop":3.01,"pdop":2.67,"satellites":[{"PRN":1,"el":51,"az":40,"ss":23,"used":true},{"PRN":11,"el":-91,"az":0,"ss":18,"used":false},{"PRN":17,"el":-91,"az":0,"ss":21,"used":false},{"PRN":18,"el":-91,"az":0,"ss":24,"used":false},{"PRN":28,"el":77,"az":270,"ss":28,"used":true},{"PRN":75,"el":9,"az":334,"ss":27,"used":true},{"PRN":85,"el":-91,"az":0,"ss":24,"used":false},{"PRN":255,"el":-91,"az":0,"ss":27,"used":false}]}
{"class":"TPV","device":"/dev/ttyAMA0","mode":2,"time":"2018-10-01T23:31:28.000Z","ept":0.005,"lat":36.623519966,"lon":127.347171896,"track":74.7158,"speed":0.390,"eps":2.01}
{"class":"TPV","device":"/dev/ttyAMA0","mode":2,"time":"2018-10-01T23:31:29.000Z","ept":0.005,"lat":36.623515569,"lon":127.347180942,"track":78.0584,"speed":0.467,"eps":2.09}
{"class":"TPV","device":"/dev/ttyAMA0","mode":2,"time":"2018-10-01T23:31:30.000Z","ept":0.005,"lat":36.623498859,"lon":127.347192192,"track":49.7153,"speed":0.140,"eps":1.91}
{"class":"TPV","device":"/dev/ttyAMA0","mode":2,"time":"2018-10-01T23:31:31.000Z","ept":0.005,"lat":36.623510078,"lon":127.347193739,"track":88.6403,"speed":0.612,"eps":1.89}
{"class":"TPV","device":"/dev/ttyAMA0","mode":2,"time":"2018-10-01T23:31:32.000Z","ept":0.005,"lat":36.623502854,"lon":127.347191771,"track":103.1029,"speed":0.597,"eps":1.76}
{"class":"TPV","device":"/dev/ttyAMA0","mode":2,"time":"2018-10-01T23:31:33.000Z","ept":0.005,"lat":36.623489894,"lon":127.347199681,"track":92.6197,"speed":0.767,"eps":1.99}
{"class":"TPV","device":"/dev/ttyAMA0","mode":2,"time":"2018-10-01T23:31:34.000Z","ept":0.005,"lat":36.623466186,"lon":127.347212633,"track":88.1684,"speed":0.540,"eps":2.06}
{"class":"TPV","device":"/dev/ttyAMA0","mode":2,"time":"2018-10-01T23:31:35.000Z","ept":0.005,"lat":36.623445407,"lon":127.347229808,"track":73.7636,"speed":0.617,"eps":2.20}
{"class":"TPV","device":"/dev/ttyAMA0","mode":2,"time":"2018-10-01T23:31:36.000Z","ept":0.005,"lat":36.623456081,"lon":127.347225536,"track":76.8922,"speed":0.432,"eps":2.23}
{"class":"TPV","device":"/dev/ttyAMA0","mode":2,"time":"2018-10-01T23:31:37.000Z","ept":0.005,"lat":36.623481829,"lon":127.347200038,"track":196.5158,"speed":0.157,"eps":1.33}
{"class":"SKY","device":"/dev/ttyAMA0","vdop":1.00,"tdop":1.39,"hdop":2.47,"gdop":3.00,"pdop":2.66,"satellites":[{"PRN":1,"el":51,"az":40,"ss":21,"used":true},{"PRN":11,"el":-91,"az":0,"ss":21,"used":false},{"PRN":17,"el":-91,"az":0,"ss":25,"used":false},{"PRN":18,"el":-91,"az":0,"ss":22,"used":false},{"PRN":28,"el":77,"az":269,"ss":28,"used":true},{"PRN":75,"el":9,"az":334,"ss":32,"used":true},{"PRN":85,"el":-91,"az":0,"ss":26,"used":false},{"PRN":255,"el":-91,"az":0,"ss":29,"used":false}]}
{"class":"TPV","device":"/dev/ttyAMA0","mode":2,"time":"2018-10-01T23:31:38.000Z","ept":0.005,"lat":36.623509267,"lon":127.347182084,"track":167.4067,"speed":0.054,"eps":0.66}
{"class":"TPV","device":"/dev/ttyAMA0","mode":2,"time":"2018-10-01T23:31:39.000Z","ept":0.005,"lat":36.623490437,"lon":127.347181655,"track":259.9495,"speed":0.622,"eps":2.14}
{"class":"TPV","device":"/dev/ttyAMA0","mode":2,"time":"2018-10-01T23:31:40.000Z","ept":0.005,"lat":36.623484261,"lon":127.347192874,"track":279.9688,"speed":0.345,"eps":1.95}
{"class":"TPV","device":"/dev/ttyAMA0","mode":2,"time":"2018-10-01T23:31:41.000Z","ept":0.005,"lat":36.623524368,"lon":127.347152631,"track":229.5829,"speed":0.264,"eps":2.00}
{"class":"TPV","device":"/dev/ttyAMA0","mode":2,"time":"2018-10-01T23:31:42.000Z","ept":0.005,"lat":36.623520097,"lon":127.347154430,"track":112.0871,"speed":0.366,"eps":1.78}
{"class":"TPV","device":"/dev/ttyAMA0","mode":2,"time":"2018-10-01T23:31:43.000Z","ept":0.005,"lat":36.623521447,"lon":127.347159930,"track":90.9688,"speed":0.872,"eps":2.20}
{"class":"TPV","device":"/dev/ttyAMA0","mode":2,"time":"2018-10-01T23:31:44.000Z","ept":0.005,"lat":36.623518807,"lon":127.347174054,"track":82.8936,"speed":1.131,"eps":2.25}
{"class":"TPV","device":"/dev/ttyAMA0","mode":2,"time":"2018-10-01T23:31:45.000Z","ept":0.005,"lat":36.623515917,"lon":127.347189726,"track":81.7026,"speed":1.147,"eps":2.25}
{"class":"TPV","device":"/dev/ttyAMA0","mode":2,"time":"2018-10-01T23:31:46.000Z","ept":0.005,"lat":36.623513953,"lon":127.347197852,"track":80.8090,"speed":0.884,"eps":2.32}
{"class":"TPV","device":"/dev/ttyAMA0","mode":2,"time":"2018-10-01T23:31:47.000Z","ept":0.005,"lat":36.623509693,"lon":127.347204997,"track":80.6790,"speed":0.621,"eps":2.39}
{"class":"SKY","device":"/dev/ttyAMA0","vdop":1.00,"tdop":1.39,"hdop":2.46,"gdop":3.00,"pdop":2.66,"satellites":[{"PRN":1,"el":51,"az":40,"ss":18,"used":true},{"PRN":11,"el":-91,"az":0,"ss":20,"used":false},{"PRN":17,"el":-91,"az":0,"ss":26,"used":false},{"PRN":18,"el":-91,"az":0,"ss":22,"used":false},{"PRN":28,"el":77,"az":269,"ss":26,"used":true},{"PRN":75,"el":9,"az":334,"ss":31,"used":true},{"PRN":85,"el":-91,"az":0,"ss":24,"used":false},{"PRN":255,"el":-91,"az":0,"ss":29,"used":false}]}
{"class":"TPV","device":"/dev/ttyAMA0","mode":2,"time":"2018-10-01T23:31:48.000Z","ept":0.005,"lat":36.623512799,"lon":127.347200696,"track":85.5736,"speed":0.355,"eps":2.39}
{"class":"TPV","device":"/dev/ttyAMA0","mode":2,"time":"2018-10-01T23:31:49.000Z","ept":0.005,"lat":36.623509709,"lon":127.347197045,"track":159.9660,"speed":0.081,"eps":0.68}
{"class":"TPV","device":"/dev/ttyAMA0","mode":2,"time":"2018-10-01T23:31:50.000Z","ept":0.005,"lat":36.623509369,"lon":127.347193783,"track":219.2452,"speed":0.124,"eps":2.05}
{"class":"TPV","device":"/dev/ttyAMA0","mode":2,"time":"2018-10-01T23:31:51.000Z","ept":0.005,"lat":36.623504158,"lon":127.347183621,"track":237.9338,"speed":0.369,"eps":2.24}
{"class":"TPV","device":"/dev/ttyAMA0","mode":2,"time":"2018-10-01T23:31:52.000Z","ept":0.005,"lat":36.623499399,"lon":127.347184051,"track":151.8564,"speed":0.214,"eps":0.78}
{"class":"TPV","device":"/dev/ttyAMA0","mode":2,"time":"2018-10-01T23:31:53.000Z","ept":0.005,"lat":36.623495839,"lon":127.347182139,"track":129.2477,"speed":0.177,"eps":1.33}
{"class":"TPV","device":"/dev/ttyAMA0","mode":2,"time":"2018-10-01T23:31:54.000Z","ept":0.005,"lat":36.623501416,"lon":127.347197195,"track":78.4363,"speed":0.918,"eps":2.08}
{"class":"TPV","device":"/dev/ttyAMA0","mode":2,"time":"2018-10-01T23:31:55.000Z","ept":0.005,"lat":36.623503709,"lon":127.347200457,"track":83.5631,"speed":0.697,"eps":2.03}
{"class":"TPV","device":"/dev/ttyAMA0","mode":2,"time":"2018-10-01T23:31:56.000Z","ept":0.005,"lat":36.623499310,"lon":127.347210356,"track":78.4371,"speed":0.294,"eps":2.04}
{"class":"TPV","device":"/dev/ttyAMA0","mode":2,"time":"2018-10-01T23:31:57.000Z","ept":0.005,"lat":36.623493316,"lon":127.347210492,"track":261.9331,"speed":0.449,"eps":2.02}
{"class":"SKY","device":"/dev/ttyAMA0","vdop":1.00,"tdop":1.39,"hdop":2.46,"gdop":3.00,"pdop":2.65,"satellites":[{"PRN":1,"el":51,"az":40,"ss":22,"used":true},{"PRN":11,"el":-91,"az":0,"ss":21,"used":false},{"PRN":17,"el":-91,"az":0,"ss":26,"used":false},{"PRN":18,"el":-91,"az":0,"ss":23,"used":false},{"PRN":28,"el":77,"az":269,"ss":27,"used":true},{"PRN":75,"el":9,"az":334,"ss":33,"used":true},{"PRN":85,"el":-91,"az":0,"ss":22,"used":false},{"PRN":255,"el":-91,"az":0,"ss":29,"used":false}]}
{"class":"TPV","device":"/dev/ttyAMA0","mode":2,"time":"2018-10-01T23:31:58.000Z","ept":0.005,"lat":36.623493183,"lon":127.347212910,"track":268.1912,"speed":0.448,"eps":1.89}
{"class":"TPV","device":"/dev/ttyAMA0","mode":2,"time":"2018-10-01T23:31:59.000Z","ept":0.005,"lat":36.623493882,"lon":127.347218072,"track":299.3401,"speed":0.206,"eps":1.41}
{"class":"TPV","device":"/dev/ttyAMA0","mode":2,"time":"2018-10-01T23:32:00.000Z","ept":0.005,"lat":36.623493556,"lon":127.347213230,"track":270.1818,"speed":0.664,"eps":1.75}
{"class":"TPV","device":"/dev/ttyAMA0","mode":3,"time":"2018-10-01T23:32:01.000Z","ept":0.005,"lat":36.622725698,"lon":127.347607431,"alt":88.126,"epv":23.000,"track":199.4460,"speed":0.941,"climb":-0.785,"eps":5.43}
{"class":"TPV","device":"/dev/ttyAMA0","mode":3,"time":"2018-10-01T23:32:02.000Z","ept":0.005,"lat":36.622729195,"lon":127.347593855,"alt":89.062,"epv":152.720,"track":176.9083,"speed":0.500,"climb":-0.518,"eps":4.41,"epc":175.72}
{"class":"TPV","device":"/dev/ttyAMA0","mode":3,"time":"2018-10-01T23:32:03.000Z","ept":0.005,"lat":36.622726517,"lon":127.347582671,"alt":87.702,"epv":152.720,"track":200.0717,"speed":0.614,"climb":-0.598,"eps":3.53,"epc":305.44}
{"class":"TPV","device":"/dev/ttyAMA0","mode":3,"time":"2018-10-01T23:32:04.000Z","ept":0.005,"lat":36.622717052,"lon":127.347569605,"alt":86.735,"epv":152.490,"track":196.2858,"speed":0.452,"climb":-0.506,"eps":3.24,"epc":305.21}
{"class":"TPV","device":"/dev/ttyAMA0","mode":3,"time":"2018-10-01T23:32:05.000Z","ept":0.005,"lat":36.622703013,"lon":127.347576031,"alt":84.556,"epv":152.490,"track":130.0533,"speed":0.323,"climb":-0.374,"eps":2.87,"epc":304.98}
{"class":"TPV","device":"/dev/ttyAMA0","mode":3,"time":"2018-10-01T23:32:06.000Z","ept":0.005,"lat":36.622699992,"lon":127.347569310,"alt":84.488,"epv":152.490,"track":218.9673,"speed":0.425,"climb":-0.343,"eps":2.66,"epc":304.98}
{"class":"TPV","device":"/dev/ttyAMA0","mode":3,"time":"2018-10-01T23:32:07.000Z","ept":0.005,"lat":36.622703382,"lon":127.347575903,"alt":85.406,"epv":152.490,"track":74.1312,"speed":0.464,"climb":0.064,"eps":1.80,"epc":304.98}
{"class":"SKY","device":"/dev/ttyAMA0","xdop":1.83,"ydop":5.67,"vdop":6.63,"tdop":7.17,"hdop":6.11,"gdop":11.52,"pdop":9.01,"satellites":[{"PRN":1,"el":51,"az":40,"ss":23,"used":true},{"PRN":11,"el":-91,"az":0,"ss":19,"used":false},{"PRN":17,"el":43,"az":310,"ss":26,"used":true},{"PRN":18,"el":-91,"az":0,"ss":21,"used":false},{"PRN":28,"el":77,"az":268,"ss":28,"used":true},{"PRN":75,"el":9,"az":334,"ss":33,"used":true},{"PRN":84,"el":47,"az":317,"ss":28,"used":false},{"PRN":85,"el":-91,"az":0,"ss":24,"used":false}]}
{"class":"TPV","device":"/dev/ttyAMA0","mode":3,"time":"2018-10-01T23:32:08.000Z","ept":0.005,"lat":36.622715005,"lon":127.347580770,"alt":87.359,"epx":27.413,"epy":85.003,"epv":152.260,"track":58.5508,"speed":0.429,"climb":0.185,"eps":2.12,"epc":304.75}
{"class":"TPV","device":"/dev/ttyAMA0","mode":3,"time":"2018-10-01T23:32:09.000Z","ept":0.005,"lat":36.622729700,"lon":127.347578778,"alt":88.903,"epx":27.413,"epy":85.003,"epv":152.260,"track":193.7419,"speed":0.051,"climb":-0.017,"eps":2.12,"epc":304.52}
{"class":"TPV","device":"/dev/ttyAMA0","mode":3,"time":"2018-10-01T23:32:10.000Z","ept":0.005,"lat":36.622758107,"lon":127.347580848,"alt":91.971,"epx":27.413,"epy":85.003,"epv":152.260,"track":40.0409,"speed":0.118,"climb":0.046,"eps":2.03,"epc":304.52}
{"class":"TPV","device":"/dev/ttyAMA0","mode":3,"time":"2018-10-01T23:32:11.000Z","ept":0.005,"lat":36.622764444,"lon":127.347584033,"alt":92.953,"epx":27.413,"epy":85.003,"epv":152.260,"track":154.4189,"speed":0.271,"climb":-0.023,"eps":1.56,"epc":304.52}
{"class":"TPV","device":"/dev/ttyAMA0","mode":3,"time":"2018-10-01T23:32:12.000Z","ept":0.005,"lat":36.622781294,"lon":127.347586173,"alt":94.728,"epx":27.413,"epy":85.003,"epv":152.030,"track":150.3665,"speed":0.410,"climb":-0.041,"eps":1.57,"epc":304.29}
{"class":"TPV","device":"/dev/ttyAMA0","mode":3,"time":"2018-10-01T23:32:13.000Z","ept":0.005,"lat":36.622781415,"lon":127.347589370,"alt":94.744,"epx":27.413,"epy":85.003,"epv":152.030,"track":138.8270,"speed":0.545,"climb":-0.152,"eps":1.64,"epc":304.06}
{"class":"TPV","device":"/dev/ttyAMA0","mode":3,"time":"2018-10-01T23:32:14.000Z","ept":0.005,"lat":36.622796671,"lon":127.347589489,"alt":95.903,"epx":27.413,"epy":85.003,"epv":152.030,"track":122.3977,"speed":0.327,"climb":-0.150,"eps":1.51,"epc":304.06}
{"class":"TPV","device":"/dev/ttyAMA0","mode":3,"time":"2018-10-01T23:32:15.000Z","ept":0.005,"lat":36.622806883,"lon":127.347589209,"alt":96.909,"epx":27.413,"epy":85.003,"epv":152.030,"track":127.3045,"speed":0.300,"climb":-0.175,"eps":1.52,"epc":304.06}
{"class":"TPV","device":"/dev/ttyAMA0","mode":3,"time":"2018-10-01T23:32:16.000Z","ept":0.005,"lat":36.622816567,"lon":127.347588219,"alt":98.078,"epx":27.413,"epy":85.003,"epv":152.030,"track":133.6131,"speed":0.175,"climb":-0.173,"eps":1.61,"epc":304.06}
{"class":"TPV","device":"/dev/ttyAMA0","mode":3,"time":"2018-10-01T23:32:17.000Z","ept":0.005,"lat":36.622820976,"lon":127.347588603,"alt":98.694,"epx":27.413,"epy":85.003,"epv":151.800,"track":136.2542,"speed":0.215,"climb":-0.194,"eps":1.59,"epc":303.83}
{"class":"SKY","device":"/dev/ttyAMA0","xdop":1.83,"ydop":5.67,"vdop":6.60,"tdop":7.14,"hdop":6.08,"gdop":11.46,"pdop":8.97,"satellites":[{"PRN":1,"el":51,"az":40,"ss":23,"used":true},{"PRN":11,"el":-91,"az":0,"ss":19,"used":false},{"PRN":17,"el":43,"az":310,"ss":26,"used":true},{"PRN":18,"el":-91,"az":0,"ss":18,"used":false},{"PRN":19,"el":-91,"az":0,"ss":28,"used":false},{"PRN":28,"el":77,"az":268,"ss":27,"used":true},{"PRN":75,"el":9,"az":334,"ss":28,"used":true},{"PRN":84,"el":47,"az":317,"ss":27,"used":false},{"PRN":85,"el":7,"az":275,"ss":24,"used":false}]}
{"class":"TPV","device":"/dev/ttyAMA0","mode":3,"time":"2018-10-01T23:32:18.000Z","ept":0.005,"lat":36.622824212,"lon":127.347589047,"alt":98.999,"epx":27.413,"epy":85.003,"epv":151.800,"track":137.4743,"speed":0.205,"climb":-0.216,"eps":1.59,"epc":303.60}
{"class":"TPV","device":"/dev/ttyAMA0","mode":3,"time":"2018-10-01T23:32:19.000Z","ept":0.005,"lat":36.622828077,"lon":127.347587247,"alt":99.478,"epx":27.413,"epy":85.003,"epv":151.800,"track":143.3261,"speed":0.195,"climb":-0.225,"eps":1.60,"epc":303.60}
{"class":"TPV","device":"/dev/ttyAMA0","mode":3,"time":"2018-10-01T23:32:20.000Z","ept":0.005,"lat":36.622827721,"lon":127.347580369,"alt":99.632,"epx":27.413,"epy":85.003,"epv":151.800,"track":219.8667,"speed":0.440,"climb":-0.284,"eps":1.98,"epc":303.60}
{"class":"TPV","device":"/dev/ttyAMA0","mode":3,"time":"2018-10-01T23:32:21.000Z","ept":0.005,"lat":36.622841921,"lon":127.347590439,"alt":101.283,"epx":27.413,"epy":85.003,"epv":151.570,"track":78.0247,"speed":0.721,"climb":-0.034,"eps":1.63,"epc":303.37}
{"class":"TPV","device":"/dev/ttyAMA0","mode":3,"time":"2018-10-01T23:32:22.000Z","ept":0.005,"lat":36.622845510,"lon":127.347589773,"alt":101.820,"epx":27.413,"epy":85.003,"epv":151.570,"track":93.4086,"speed":0.521,"climb":-0.092,"eps":1.47,"epc":303.14}
{"class":"TPV","device":"/dev/ttyAMA0","mode":3,"time":"2018-10-01T23:32:23.000Z","ept":0.005,"lat":36.622845737,"lon":127.347587439,"alt":101.954,"epx":27.413,"epy":85.003,"epv":151.570,"track":111.3007,"speed":0.411,"climb":-0.202,"eps":1.33,"epc":303.14}
{"class":"TPV","device":"/dev/ttyAMA0","mode":3,"time":"2018-10-01T23:32:24.000Z","ept":0.005,"lat":36.622849430,"lon":127.347585685,"alt":102.392,"epx":27.413,"epy":85.003,"epv":151.570,"track":138.6841,"speed":0.304,"climb":-0.230,"eps":1.50,"epc":303.14}
{"class":"TPV","device":"/dev/ttyAMA0","mode":3,"time":"2018-10-01T23:32:25.000Z","ept":0.005,"lat":36.622852193,"lon":127.347584866,"alt":102.801,"epx":27.413,"epy":85.003,"epv":151.570,"track":164.2387,"speed":0.215,"climb":-0.208,"eps":1.65,"epc":303.14}
{"class":"TPV","device":"/dev/ttyAMA0","mode":3,"time":"2018-10-01T23:32:26.000Z","ept":0.005,"lat":36.622855898,"lon":127.347579539,"alt":103.186,"epx":27.413,"epy":85.003,"epv":151.340,"track":210.6993,"speed":0.320,"climb":-0.266,"eps":1.85,"epc":302.91}
{"class":"TPV","device":"/dev/ttyAMA0","mode":2,"time":"2018-10-01T23:32:27.000Z","ept":0.005,"lat":36.622901334,"lon":127.347572425,"epx":27.413,"epy":85.003,"track":230.4797,"speed":0.078,"eps":1.78}
{"class":"SKY","device":"/dev/ttyAMA0","xdop":1.83,"ydop":5.67,"vdop":6.58,"tdop":7.10,"hdop":6.04,"gdop":11.41,"pdop":8.93,"satellites":[{"PRN":1,"el":51,"az":40,"ss":21,"used":false},{"PRN":11,"el":-91,"az":0,"ss":20,"used":false},{"PRN":17,"el":43,"az":310,"ss":28,"used":true},{"PRN":18,"el":-91,"az":0,"ss":11,"used":false},{"PRN":19,"el":-91,"az":0,"ss":27,"used":false},{"PRN":28,"el":77,"az":268,"ss":28,"used":true},{"PRN":75,"el":9,"az":334,"ss":25,"used":true},{"PRN":84,"el":47,"az":317,"ss":27,"used":false},{"PRN":85,"el":7,"az":275,"ss":26,"used":false}]}
{"class":"TPV","device":"/dev/ttyAMA0","mode":2,"time":"2018-10-01T23:32:28.000Z","ept":0.005,"lat":36.622914024,"lon":127.347573055,"epx":27.413,"epy":85.003,"track":55.5130,"speed":0.139,"eps":2.55}
{"class":"TPV","device":"/dev/ttyAMA0","mode":2,"time":"2018-10-01T23:32:29.000Z","ept":0.005,"lat":36.622930498,"lon":127.347575300,"epx":27.413,"epy":85.003,"track":12.6027,"speed":0.384,"eps":2.21}
{"class":"TPV","device":"/dev/ttyAMA0","mode":2,"time":"2018-10-01T23:32:30.000Z","ept":0.005,"lat":36.622940321,"lon":127.347573542,"epx":27.413,"epy":85.003,"track":290.9025,"speed":0.449,"eps":2.24}
{"class":"TPV","device":"/dev/ttyAMA0","mode":2,"time":"2018-10-01T23:32:31.000Z","ept":0.005,"lat":36.622953645,"lon":127.347569775,"epx":27.413,"epy":85.003,"track":265.5873,"speed":0.327,"eps":2.72}
{"class":"TPV","device":"/dev/ttyAMA0","mode":2,"time":"2018-10-01T23:32:32.000Z","ept":0.005,"lat":36.622987171,"lon":127.347598664,"epx":27.413,"epy":85.003,"track":46.1211,"speed":1.497,"eps":3.17}
{"class":"TPV","device":"/dev/ttyAMA0","mode":3,"time":"2018-10-01T23:32:33.000Z","ept":0.005,"lat":36.622976251,"lon":127.347582433,"alt":117.168,"epx":27.413,"epy":85.003,"epv":23.000,"track":74.5252,"speed":0.401,"climb":0.024,"eps":2.12}
{"class":"TPV","device":"/dev/ttyAMA0","mode":3,"time":"2018-10-01T23:32:34.000Z","ept":0.005,"lat":36.622977447,"lon":127.347581797,"alt":116.805,"epx":27.413,"epy":85.003,"epv":151.110,"track":44.6271,"speed":0.360,"climb":0.024,"eps":2.55,"epc":174.11}
{"class":"TPV","device":"/dev/ttyAMA0","mode":3,"time":"2018-10-01T23:32:35.000Z","ept":0.005,"lat":36.622971386,"lon":127.347574329,"alt":117.190,"epx":27.413,"epy":85.003,"epv":150.880,"track":219.2989,"speed":0.064,"climb":0.050,"eps":2.04,"epc":301.99}
{"class":"TPV","device":"/dev/ttyAMA0","mode":3,"time":"2018-10-01T23:32:36.000Z","ept":0.005,"lat":36.622962902,"lon":127.347570099,"alt":117.150,"epx":27.413,"epy":85.003,"epv":150.880,"track":245.4325,"speed":0.245,"climb":0.104,"eps":2.22,"epc":301.76}
{"class":"TPV","device":"/dev/ttyAMA0","mode":3,"time":"2018-10-01T23:32:37.000Z","ept":0.005,"lat":36.622968352,"lon":127.347583361,"alt":116.956,"epx":27.413,"epy":85.003,"epv":150.880,"track":44.9513,"speed":0.696,"climb":0.159,"eps":2.41,"epc":301.76}
{"class":"SKY","device":"/dev/ttyAMA0","xdop":1.83,"ydop":5.67,"vdop":6.56,"tdop":7.07,"hdop":6.01,"gdop":11.36,"pdop":8.89,"satellites":[{"PRN":1,"el":51,"az":40,"ss":18,"used":true},{"PRN":11,"el":-91,"az":0,"ss":15,"used":false},{"PRN":17,"el":43,"az":310,"ss":27,"used":true},{"PRN":19,"el":-91,"az":0,"ss":27,"used":false},{"PRN":28,"el":77,"az":268,"ss":28,"used":true},{"PRN":75,"el":10,"az":334,"ss":20,"used":true},{"PRN":84,"el":47,"az":317,"ss":27,"used":false},{"PRN":85,"el":7,"az":275,"ss":27,"used":false}]}
{"class":"TPV","device":"/dev/ttyAMA0","mode":3,"time":"2018-10-01T23:32:38.000Z","ept":0.005,"lat":36.622966332,"lon":127.347584416,"alt":116.738,"epx":27.413,"epy":85.003,"epv":150.880,"track":30.0514,"speed":0.424,"climb":0.193,"eps":2.14,"epc":301.76}
{"class":"TPV","device":"/dev/ttyAMA0","mode":3,"time":"2018-10-01T23:32:39.000Z","ept":0.005,"lat":36.622960845,"lon":127.347576245,"alt":116.719,"epx":27.413,"epy":85.003,"epv":150.650,"track":254.0597,"speed":0.151,"climb":0.207,"eps":1.29,"epc":301.53}
{"class":"TPV","device":"/dev/ttyAMA0","mode":3,"time":"2018-10-01T23:32:40.000Z","ept":0.005,"lat":36.622954788,"lon":127.347569107,"alt":116.584,"epx":27.413,"epy":85.003,"epv":150.650,"track":193.4801,"speed":0.214,"climb":0.112,"eps":1.43,"epc":301.30}
{"class":"TPV","device":"/dev/ttyAMA0","mode":3,"time":"2018-10-01T23:32:41.000Z","ept":0.005,"lat":36.622948292,"lon":127.347557744,"alt":116.414,"epx":27.413,"epy":85.003,"epv":150.650,"track":221.1547,"speed":0.354,"climb":-0.044,"eps":2.03,"epc":301.30}
{"class":"TPV","device":"/dev/ttyAMA0","mode":3,"time":"2018-10-01T23:32:42.000Z","ept":0.005,"lat":36.622943013,"lon":127.347555253,"alt":116.096,"epx":27.413,"epy":85.003,"epv":150.650,"track":176.9652,"speed":0.221,"climb":-0.122,"eps":1.68,"epc":301.30}
{"class":"TPV","device":"/dev/ttyAMA0","mode":3,"time":"2018-10-01T23:32:43.000Z","ept":0.005,"lat":36.622938505,"lon":127.347554961,"alt":115.746,"epx":27.413,"epy":85.003,"epv":150.650,"track":150.5446,"speed":0.305,"climb":-0.196,"eps":1.65,"epc":301.30}
{"class":"TPV","device":"/dev/ttyAMA0","mode":3,"time":"2018-10-01T23:32:44.000Z","ept":0.005,"lat":36.622932605,"lon":127.347551086,"alt":115.353,"epx":27.413,"epy":85.003,"epv":150.420,"track":199.5931,"speed":0.262,"climb":-0.204,"eps":1.92,"epc":301.07}
{"class":"TPV","device":"/dev/ttyAMA0","mode":3,"time":"2018-10-01T23:32:45.000Z","ept":0.005,"lat":36.622928241,"lon":127.347545372,"alt":115.150,"epx":27.413,"epy":85.003,"epv":150.420,"track":252.2210,"speed":0.441,"climb":-0.154,"eps":2.31,"epc":300.84}
{"class":"TPV","device":"/dev/ttyAMA0","mode":3,"time":"2018-10-01T23:32:46.000Z","ept":0.005,"lat":36.622922974,"lon":127.347539671,"alt":115.014,"epx":27.413,"epy":85.003,"epv":150.420,"track":244.6422,"speed":0.516,"climb":-0.122,"eps":2.39,"epc":300.84}
{"class":"TPV","device":"/dev/ttyAMA0","mode":3,"time":"2018-10-01T23:32:47.000Z","ept":0.005,"lat":36.622923993,"lon":127.347540990,"alt":115.398,"epx":27.413,"epy":85.003,"epv":150.420,"track":273.7768,"speed":0.288,"climb":-0.009,"eps":2.24,"epc":300.84}
{"class":"SKY","device":"/dev/ttyAMA0","xdop":1.83,"ydop":5.67,"vdop":6.54,"tdop":7.04,"hdop":5.97,"gdop":11.31,"pdop":8.86,"satellites":[{"PRN":1,"el":50,"az":40,"ss":18,"used":true},{"PRN":11,"el":-91,"az":0,"ss":16,"used":false},{"PRN":17,"el":43,"az":310,"ss":24,"used":true},{"PRN":19,"el":-91,"az":0,"ss":25,"used":false},{"PRN":28,"el":77,"az":268,"ss":27,"used":true},{"PRN":75,"el":10,"az":334,"ss":26,"used":true},{"PRN":84,"el":47,"az":317,"ss":27,"used":false},{"PRN":85,"el":7,"az":275,"ss":28,"used":false}]}
{"class":"TPV","device":"/dev/ttyAMA0","mode":3,"time":"2018-10-01T23:32:48.000Z","ept":0.005,"lat":36.622926899,"lon":127.347555621,"alt":115.535,"epx":27.413,"epy":85.003,"epv":150.190,"track":67.2830,"speed":0.647,"climb":0.033,"eps":2.39,"epc":300.61}
{"class":"TPV","device":"/dev/ttyAMA0","mode":3,"time":"2018-10-01T23:32:49.000Z","ept":0.005,"lat":36.622932861,"lon":127.347558846,"alt":116.254,"epx":27.413,"epy":85.003,"epv":150.190,"track":55.1651,"speed":0.696,"climb":0.102,"eps":2.27,"epc":300.38}
{"class":"TPV","device":"/dev/ttyAMA0","mode":3,"time":"2018-10-01T23:32:50.000Z","ept":0.005,"lat":36.622931418,"lon":127.347560361,"alt":116.201,"epx":27.413,"epy":85.003,"epv":150.190,"track":92.1262,"speed":0.786,"climb":-0.011,"eps":2.21,"epc":300.38}
{"class":"TPV","device":"/dev/ttyAMA0","mode":3,"time":"2018-10-01T23:32:51.000Z","ept":0.005,"lat":36.622936157,"lon":127.347556390,"alt":117.069,"epx":27.413,"epy":85.003,"epv":150.190,"track":87.6337,"speed":0.633,"climb":-0.069,"eps":2.18,"epc":300.38}
{"class":"TPV","device":"/dev/ttyAMA0","mode":3,"time":"2018-10-01T23:32:52.000Z","ept":0.005,"lat":36.622940683,"lon":127.347564578,"alt":117.684,"epx":27.413,"epy":85.003,"epv":150.190,"track":85.0817,"speed":1.117,"climb":-0.062,"eps":2.19,"epc":300.38}
{"class":"TPV","device":"/dev/ttyAMA0","mode":3,"time":"2018-10-01T23:32:53.000Z","ept":0.005,"lat":36.622937825,"lon":127.347569274,"alt":117.440,"epx":27.413,"epy":85.003,"epv":149.960,"track":87.1236,"speed":0.932,"climb":-0.130,"eps":2.16,"epc":300.15}
{"class":"TPV","device":"/dev/ttyAMA0","mode":3,"time":"2018-10-01T23:32:54.000Z","ept":0.005,"lat":36.622937640,"lon":127.347577700,"alt":117.468,"epx":27.413,"epy":85.003,"epv":149.960,"track":86.7972,"speed":0.997,"climb":-0.125,"eps":2.08,"epc":299.92}
{"class":"TPV","device":"/dev/ttyAMA0","mode":3,"time":"2018-10-01T23:32:55.000Z","ept":0.005,"lat":36.622930917,"lon":127.347582485,"alt":116.913,"epx":27.413,"epy":85.003,"epv":149.960,"track":106.6825,"speed":0.892,"climb":-0.209,"eps":1.92,"epc":299.92}
{"class":"TPV","device":"/dev/ttyAMA0","mode":3,"time":"2018-10-01T23:32:56.000Z","ept":0.005,"lat":36.622927452,"lon":127.347578998,"alt":116.910,"epx":27.413,"epy":85.003,"epv":149.960,"track":113.8726,"speed":0.547,"climb":-0.222,"eps":1.89,"epc":299.92}
{"class":"TPV","device":"/dev/ttyAMA0","mode":3,"time":"2018-10-01T23:32:57.000Z","ept":0.005,"lat":36.622927407,"lon":127.347581169,"alt":117.185,"epx":27.413,"epy":85.003,"epv":149.730,"track":88.4500,"speed":0.800,"climb":-0.180,"eps":1.84,"epc":299.69}
{"class":"SKY","device":"/dev/ttyAMA0","xdop":1.83,"ydop":5.67,"vdop":6.51,"tdop":7.01,"hdop":5.94,"gdop":11.26,"pdop":8.82,"satellites":[{"PRN":1,"el":50,"az":40,"ss":23,"used":true},{"PRN":6,"el":16,"az":243,"ss":17,"used":false},{"PRN":11,"el":-91,"az":0,"ss":12,"used":false},{"PRN":17,"el":43,"az":310,"ss":25,"used":true},{"PRN":19,"el":-91,"az":0,"ss":26,"used":false},{"PRN":28,"el":77,"az":266,"ss":28,"used":true},{"PRN":67,"el":14,"az":33,"ss":18,"used":false},{"PRN":75,"el":10,"az":334,"ss":26,"used":true},{"PRN":84,"el":47,"az":317,"ss":27,"used":false},{"PRN":85,"el":7,"az":275,"ss":27,"used":false}]}
{"class":"TPV","device":"/dev/ttyAMA0","mode":3,"time":"2018-10-01T23:32:58.000Z","ept":0.005,"lat":36.622922702,"lon":127.347575769,"alt":116.949,"epx":27.413,"epy":85.003,"epv":149.730,"track":117.3838,"speed":0.406,"climb":-0.235,"eps":1.92,"epc":299.46}
{"class":"TPV","device":"/dev/ttyAMA0","mode":3,"time":"2018-10-01T23:32:59.000Z","ept":0.005,"lat":36.622921676,"lon":127.347572287,"alt":117.085,"epx":27.413,"epy":85.003,"epv":149.730,"track":101.7019,"speed":0.332,"climb":-0.211,"eps":1.87,"epc":299.46}
{"class":"TPV","device":"/dev/ttyAMA0","mode":3,"time":"2018-10-01T23:33:00.000Z","ept":0.005,"lat":36.622917074,"lon":127.347562771,"alt":116.884,"epx":27.413,"epy":85.003,"epv":149.730,"track":167.8139,"speed":0.305,"climb":-0.286,"eps":2.14,"epc":299.46}
{"class":"TPV","device":"/dev/ttyAMA0","mode":3,"time":"2018-10-01T23:33:01.000Z","ept":0.005,"lat":36.622912091,"lon":127.347556430,"alt":116.639,"epx":27.413,"epy":85.003,"epv":149.730,"track":172.6267,"speed":0.408,"climb":-0.345,"eps":2.18,"epc":299.46}
{"class":"TPV","device":"/dev/ttyAMA0","mode":3,"time":"2018-10-01T23:33:02.000Z","ept":0.005,"lat":36.622906238,"lon":127.347547160,"alt":116.339,"epx":27.413,"epy":85.003,"epv":149.500,"track":182.9317,"speed":0.503,"climb":-0.414,"eps":2.20,"epc":299.23}
{"class":"TPV","device":"/dev/ttyAMA0","mode":3,"time":"2018-10-01T23:33:03.000Z","ept":0.005,"lat":36.622876248,"lon":127.347550600,"alt":112.419,"epx":27.413,"epy":85.003,"epv":149.500,"track":187.4686,"speed":0.357,"climb":-0.496,"eps":1.87,"epc":299.00}
{"class":"TPV","device":"/dev/ttyAMA0","mode":3,"time":"2018-10-01T23:33:04.000Z","ept":0.005,"lat":36.622848703,"lon":127.347553366,"alt":108.736,"epx":27.413,"epy":85.003,"epv":109.250,"track":207.3775,"speed":0.348,"climb":-0.523,"eps":1.85,"epc":258.75}
{"class":"TPV","device":"/dev/ttyAMA0","mode":3,"time":"2018-10-01T23:33:05.000Z","ept":0.005,"lat":36.622819625,"lon":127.347561394,"alt":104.528,"epx":27.413,"epy":85.003,"epv":109.250,"track":164.9181,"speed":0.142,"climb":-0.553,"eps":1.57,"epc":218.50}
{"class":"TPV","device":"/dev/ttyAMA0","mode":3,"time":"2018-10-01T23:33:06.000Z","ept":0.005,"lat":36.622790053,"lon":127.347568241,"alt":100.226,"epx":27.413,"epy":85.003,"epv":109.020,"track":175.1055,"speed":0.110,"climb":-0.590,"eps":1.53,"epc":218.27}
{"class":"TPV","device":"/dev/ttyAMA0","mode":3,"time":"2018-10-01T23:33:07.000Z","ept":0.005,"lat":36.622763764,"lon":127.347569787,"alt":96.826,"epx":27.413,"epy":85.003,"epv":109.020,"track":207.8770,"speed":0.406,"climb":-0.573,"eps":1.79,"epc":218.04}
{"class":"SKY","device":"/dev/ttyAMA0","xdop":1.83,"ydop":5.67,"vdop":4.74,"tdop":5.21,"hdop":4.47,"gdop":8.34,"pdop":6.51,"satellites":[{"PRN":1,"el":50,"az":40,"ss":23,"used":true},{"PRN":6,"el":16,"az":243,"ss":8,"used":false},{"PRN":17,"el":43,"az":310,"ss":22,"used":true},{"PRN":19,"el":-91,"az":0,"ss":27,"used":false},{"PRN":28,"el":77,"az":266,"ss":28,"used":true},{"PRN":67,"el":14,"az":33,"ss":15,"used":false},{"PRN":75,"el":10,"az":334,"ss":21,"used":true},{"PRN":84,"el":47,"az":317,"ss":27,"used":true},{"PRN":85,"el":7,"az":275,"ss":26,"used":false}]}
{"class":"TPV","device":"/dev/ttyAMA0","mode":3,"time":"2018-10-01T23:33:08.000Z","ept":0.005,"lat":36.622745121,"lon":127.347572698,"alt":94.329,"epx":27.413,"epy":85.003,"epv":109.020,"track":179.3000,"speed":0.325,"climb":-0.535,"eps":1.69,"epc":218.04}
{"class":"TPV","device":"/dev/ttyAMA0","mode":3,"time":"2018-10-01T23:33:09.000Z","ept":0.005,"lat":36.622727356,"lon":127.347577764,"alt":92.103,"epx":27.413,"epy":85.003,"epv":109.020,"track":177.3889,"speed":0.335,"climb":-0.438,"eps":1.77,"epc":218.04}
{"class":"TPV","device":"/dev/ttyAMA0","mode":3,"time":"2018-10-01T23:33:10.000Z","ept":0.005,"lat":36.622710860,"lon":127.347586309,"alt":90.090,"epx":27.413,"epy":85.003,"epv":109.020,"track":128.3961,"speed":0.555,"climb":-0.391,"eps":1.62,"epc":218.04}
{"class":"TPV","device":"/dev/ttyAMA0","mode":3,"time":"2018-10-01T23:33:11.000Z","ept":0.005,"lat":36.622694115,"lon":127.347599562,"alt":87.595,"epx":27.413,"epy":85.003,"epv":109.020,"track":93.8496,"speed":0.907,"climb":-0.455,"eps":1.45,"epc":218.04}
{"class":"TPV","device":"/dev/ttyAMA0","mode":3,"time":"2018-10-01T23:33:12.000Z","ept":0.005,"lat":36.622672975,"lon":127.347597798,"alt":84.917,"epx":27.413,"epy":85.003,"epv":109.020,"track":166.2798,"speed":0.661,"climb":-0.611,"eps":1.54,"epc":218.04}
{"class":"TPV","device":"/dev/ttyAMA0","mode":3,"time":"2018-10-01T23:33:13.000Z","ept":0.005,"lat":36.622657031,"lon":127.347610329,"alt":82.285,"epx":27.413,"epy":85.003,"epv":108.790,"track":105.2980,"speed":0.576,"climb":-0.650,"eps":1.28,"epc":217.81}
{"class":"TPV","device":"/dev/ttyAMA0","mode":3,"time":"2018-10-01T23:33:14.000Z","ept":0.005,"lat":36.622644947,"lon":127.347621002,"alt":80.284,"epx":27.413,"epy":85.003,"epv":108.790,"track":104.8221,"speed":0.483,"climb":-0.588,"eps":1.30,"epc":217.58}
{"class":"TPV","device":"/dev/ttyAMA0","mode":3,"time":"2018-10-01T23:33:15.000Z","ept":0.005,"lat":36.622627911,"lon":127.347625871,"alt":77.162,"epx":27.413,"epy":85.003,"epv":108.790,"track":124.9911,"speed":0.208,"climb":-0.695,"eps":1.32,"epc":217.58}
{"class":"TPV","device":"/dev/ttyAMA0","mode":3,"time":"2018-10-01T23:33:16.000Z","ept":0.005,"lat":36.622614102,"lon":127.347627868,"alt":75.033,"epx":27.413,"epy":85.003,"epv":108.790,"track":182.1913,"speed":0.400,"climb":-0.703,"eps":1.56,"epc":217.58}
{"class":"TPV","device":"/dev/ttyAMA0","mode":3,"time":"2018-10-01T23:33:17.000Z","ept":0.005,"lat":36.622608391,"lon":127.347628976,"alt":74.092,"epx":27.413,"epy":85.003,"epv":108.790,"track":192.9655,"speed":0.418,"climb":-0.642,"eps":1.64,"epc":217.58}
{"class":"SKY","device":"/dev/ttyAMA0","xdop":1.83,"ydop":5.67,"vdop":4.73,"tdop":5.19,"hdop":4.44,"gdop":8.31,"pdop":6.49,"satellites":[{"PRN":1,"el":50,"az":40,"ss":22,"used":true},{"PRN":17,"el":43,"az":310,"ss":24,"used":true},{"PRN":19,"el":-91,"az":0,"ss":29,"used":false},{"PRN":28,"el":77,"az":266,"ss":28,"used":true},{"PRN":75,"el":10,"az":334,"ss":21,"used":true},{"PRN":84,"el":47,"az":317,"ss":25,"used":true},{"PRN":85,"el":7,"az":275,"ss":26,"used":false}]}
{"class":"TPV","device":"/dev/ttyAMA0","mode":3,"time":"2018-10-01T23:33:18.000Z","ept":0.005,"lat":36.622592807,"lon":127.347629107,"alt":71.658,"epx":27.413,"epy":85.003,"epv":108.790,"track":225.4656,"speed":0.555,"climb":-0.650,"eps":1.79,"epc":217.58}
{"class":"TPV","device":"/dev/ttyAMA0","mode":3,"time":"2018-10-01T23:33:19.000Z","ept":0.005,"lat":36.622559134,"lon":127.347629958,"alt":66.476,"epx":27.413,"epy":85.003,"epv":108.560,"track":115.2458,"speed":0.490,"climb":-0.674,"eps":1.27,"epc":217.35}
{"class":"TPV","device":"/dev/ttyAMA0","mode":3,"time":"2018-10-01T23:33:20.000Z","ept":0.005,"lat":36.622535721,"lon":127.347632200,"alt":62.965,"epx":27.413,"epy":85.003,"epv":68.080,"track":123.5291,"speed":0.867,"climb":-0.797,"eps":1.21,"epc":176.64}
{"class":"TPV","device":"/dev/ttyAMA0","mode":3,"time":"2018-10-01T23:33:21.000Z","ept":0.005,"lat":36.622517967,"lon":127.347645420,"alt":59.631,"epx":27.413,"epy":85.003,"epv":68.080,"track":104.2044,"speed":1.270,"climb":-0.989,"eps":1.21,"epc":136.16}
{"class":"TPV","device":"/dev/ttyAMA0","mode":3,"time":"2018-10-01T23:33:22.000Z","ept":0.005,"lat":36.622499236,"lon":127.347652277,"alt":56.694,"epx":27.413,"epy":85.003,"epv":68.080,"track":114.8320,"speed":1.127,"climb":-1.056,"eps":1.12,"epc":136.16}
{"class":"TPV","device":"/dev/ttyAMA0","mode":3,"time":"2018-10-01T23:33:23.000Z","ept":0.005,"lat":36.622483106,"lon":127.347661152,"alt":54.191,"epx":27.413,"epy":85.003,"epv":68.080,"track":124.4700,"speed":1.012,"climb":-1.090,"eps":1.17,"epc":136.16}
{"class":"TPV","device":"/dev/ttyAMA0","mode":3,"time":"2018-10-01T23:33:24.000Z","ept":0.005,"lat":36.622474269,"lon":127.347666315,"alt":53.180,"epx":27.413,"epy":85.003,"epv":68.080,"track":129.8224,"speed":0.885,"climb":-0.997,"eps":1.07,"epc":136.16}
{"class":"TPV","device":"/dev/ttyAMA0","mode":3,"time":"2018-10-01T23:33:25.000Z","ept":0.005,"lat":36.622466016,"lon":127.347673883,"alt":51.764,"epx":27.413,"epy":85.003,"epv":68.080,"track":117.9337,"speed":0.791,"climb":-0.943,"eps":1.03,"epc":136.16}
{"class":"TPV","device":"/dev/ttyAMA0","mode":3,"time":"2018-10-01T23:33:26.000Z","ept":0.005,"lat":36.622458815,"lon":127.347675429,"alt":51.129,"epx":27.413,"epy":85.003,"epv":68.080,"track":137.0869,"speed":0.787,"climb":-0.750,"eps":0.97,"epc":136.16}
{"class":"TPV","device":"/dev/ttyAMA0","mode":3,"time":"2018-10-01T23:33:27.000Z","ept":0.005,"lat":36.622452593,"lon":127.347673991,"alt":50.415,"epx":27.413,"epy":85.003,"epv":68.080,"track":139.4187,"speed":0.640,"climb":-0.671,"eps":0.94,"epc":136.16}
{"class":"SKY","device":"/dev/ttyAMA0","xdop":1.83,"ydop":5.67,"vdop":2.96,"tdop":3.25,"hdop":3.04,"gdop":5.34,"pdop":4.24,"satellites":[{"PRN":1,"el":50,"az":40,"ss":22,"used":true},{"PRN":17,"el":43,"az":310,"ss":27,"used":true},{"PRN":19,"el":17,"az":294,"ss":29,"used":true},{"PRN":28,"el":77,"az":266,"ss":28,"used":true},{"PRN":75,"el":10,"az":334,"ss":27,"used":true},{"PRN":83,"el":38,"az":42,"ss":19,"used":false},{"PRN":84,"el":47,"az":318,"ss":27,"used":true},{"PRN":85,"el":8,"az":275,"ss":29,"used":false},{"PRN":255,"el":-91,"az":0,"ss":34,"used":false}]}
{"class":"TPV","device":"/dev/ttyAMA0","mode":3,"time":"2018-10-01T23:33:28.000Z","ept":0.005,"lat":36.622444385,"lon":127.347674912,"alt":49.377,"epx":27.413,"epy":85.003,"epv":68.080,"track":139.5814,"speed":0.576,"climb":-0.566,"eps":0.91,"epc":136.16}
{"class":"TPV","device":"/dev/ttyAMA0","mode":3,"time":"2018-10-01T23:33:29.000Z","ept":0.005,"lat":36.622439117,"lon":127.347677955,"alt":48.622,"epx":27.413,"epy":85.003,"epv":68.080,"track":133.1586,"speed":0.704,"climb":-0.559,"eps":0.89,"epc":136.16}
{"class":"TPV","device":"/dev/ttyAMA0","mode":3,"time":"2018-10-01T23:33:30.000Z","ept":0.005,"lat":36.622437257,"lon":127.347678268,"alt":48.464,"epx":27.413,"epy":85.003,"epv":68.080,"track":137.2952,"speed":0.668,"climb":-0.530,"eps":0.85,"epc":136.16}
{"class":"TPV","device":"/dev/ttyAMA0","mode":3,"time":"2018-10-01T23:33:31.000Z","ept":0.005,"lat":36.622435118,"lon":127.347680768,"alt":48.045,"epx":27.413,"epy":85.003,"epv":68.080,"track":132.6575,"speed":0.790,"climb":-0.504,"eps":0.82,"epc":136.16}
{"class":"TPV","device":"/dev/ttyAMA0","mode":3,"time":"2018-10-01T23:33:32.000Z","ept":0.005,"lat":36.622433111,"lon":127.347683132,"alt":47.658,"epx":27.413,"epy":85.003,"epv":68.080,"track":131.1986,"speed":0.674,"climb":-0.459,"eps":0.80,"epc":136.16}
{"class":"TPV","device":"/dev/ttyAMA0","mode":3,"time":"2018-10-01T23:33:33.000Z","ept":0.005,"lat":36.622429052,"lon":127.347688034,"alt":46.956,"epx":27.413,"epy":85.003,"epv":68.080,"track":129.4753,"speed":0.636,"climb":-0.445,"eps":0.78,"epc":136.16}
{"class":"TPV","device":"/dev/ttyAMA0","mode":3,"time":"2018-10-01T23:33:34.000Z","ept":0.005,"lat":36.622414911,"lon":127.347709166,"alt":44.860,"epx":27.413,"epy":85.003,"epv":68.080,"track":124.9748,"speed":1.116,"climb":-0.531,"eps":0.91,"epc":136.16}
{"class":"TPV","device":"/dev/ttyAMA0","mode":3,"time":"2018-10-01T23:33:35.000Z","ept":0.005,"lat":36.622411602,"lon":127.347714877,"alt":44.164,"epx":27.413,"epy":85.003,"epv":68.080,"track":126.4487,"speed":0.634,"climb":-0.516,"eps":0.91,"epc":136.16}
{"class":"TPV","device":"/dev/ttyAMA0","mode":3,"time":"2018-10-01T23:33:36.000Z","ept":0.005,"lat":36.622421360,"lon":127.347711100,"alt":44.349,"epx":27.413,"epy":85.003,"epv":68.080,"track":2.5245,"speed":0.285,"climb":-0.466,"eps":0.55,"epc":136.16}
{"class":"TPV","device":"/dev/ttyAMA0","mode":3,"time":"2018-10-01T23:33:37.000Z","ept":0.005,"lat":36.622421348,"lon":127.347722321,"alt":43.798,"epx":27.413,"epy":85.003,"epv":68.080,"track":92.2393,"speed":0.667,"climb":-0.451,"eps":0.79,"epc":136.16}
{"class":"SKY","device":"/dev/ttyAMA0","xdop":1.83,"ydop":5.67,"vdop":2.96,"tdop":3.24,"hdop":3.03,"gdop":5.34,"pdop":4.24,"satellites":[{"PRN":1,"el":50,"az":40,"ss":26,"used":true},{"PRN":6,"el":16,"az":243,"ss":19,"used":false},{"PRN":17,"el":43,"az":310,"ss":27,"used":true},{"PRN":19,"el":17,"az":294,"ss":22,"used":true},{"PRN":28,"el":77,"az":265,"ss":23,"used":true},{"PRN":67,"el":14,"az":32,"ss":25,"used":false},{"PRN":74,"el":45,"az":287,"ss":26,"used":false},{"PRN":75,"el":10,"az":334,"ss":25,"used":true},{"PRN":83,"el":38,"az":42,"ss":21,"used":false},{"PRN":84,"el":47,"az":318,"ss":22,"used":true},{"PRN":85,"el":8,"az":275,"ss":21,"used":false},{"PRN":255,"el":-91,"az":0,"ss":28,"used":false}]}
{"class":"TPV","device":"/dev/ttyAMA0","mode":3,"time":"2018-10-01T23:33:38.000Z","ept":0.005,"lat":36.622423992,"lon":127.347731089,"alt":43.085,"epx":27.413,"epy":85.003,"epv":68.080,"track":65.1534,"speed":0.609,"climb":-0.445,"eps":0.82,"epc":136.16}
{"class":"TPV","device":"/dev/ttyAMA0","mode":3,"time":"2018-10-01T23:33:39.000Z","ept":0.005,"lat":36.622425734,"lon":127.347740724,"alt":42.355,"epx":27.413,"epy":85.003,"epv":68.080,"track":58.0945,"speed":0.682,"climb":-0.451,"eps":0.90,"epc":136.16}
{"class":"TPV","device":"/dev/ttyAMA0","mode":3,"time":"2018-10-01T23:33:40.000Z","ept":0.005,"lat":36.622425597,"lon":127.347754255,"alt":41.990,"epx":27.413,"epy":85.003,"epv":68.080,"track":86.0806,"speed":0.912,"climb":-0.453,"eps":0.96,"epc":136.16}
{"class":"TPV","device":"/dev/ttyAMA0","mode":3,"time":"2018-10-01T23:33:41.000Z","ept":0.005,"lat":36.622425137,"lon":127.347762312,"alt":41.556,"epx":27.413,"epy":85.003,"epv":68.080,"track":92.7955,"speed":0.812,"climb":-0.450,"eps":0.99,"epc":136.16}
{"class":"TPV","device":"/dev/ttyAMA0","mode":3,"time":"2018-10-01T23:33:42.000Z","ept":0.005,"lat":36.622414601,"lon":127.347768629,"alt":40.832,"epx":27.413,"epy":85.003,"epv":68.080,"track":120.2152,"speed":0.754,"climb":-0.462,"eps":1.14,"epc":136.16}
{"class":"TPV","device":"/dev/ttyAMA0","mode":3,"time":"2018-10-01T23:33:43.000Z","ept":0.005,"lat":36.622404514,"lon":127.347771812,"alt":40.193,"epx":27.413,"epy":85.003,"epv":90.620,"track":139.0077,"speed":0.741,"climb":-0.471,"eps":1.25,"epc":158.70}
{"class":"TPV","device":"/dev/ttyAMA0","mode":3,"time":"2018-10-01T23:33:44.000Z","ept":0.005,"lat":36.622377656,"lon":127.347773594,"alt":39.257,"epx":27.413,"epy":85.003,"epv":90.620,"track":164.9786,"speed":1.050,"climb":-0.479,"eps":1.39,"epc":181.24}
{"class":"TPV","device":"/dev/ttyAMA0","mode":3,"time":"2018-10-01T23:33:45.000Z","ept":0.005,"lat":36.622362171,"lon":127.347779090,"alt":38.636,"epx":27.413,"epy":85.003,"epv":90.620,"track":165.3426,"speed":1.331,"climb":-0.480,"eps":1.42,"epc":181.24}
{"class":"TPV","device":"/dev/ttyAMA0","mode":3,"time":"2018-10-01T23:33:46.000Z","ept":0.005,"lat":36.622355027,"lon":127.347782376,"alt":38.060,"epx":27.413,"epy":85.003,"epv":90.620,"track":165.0550,"speed":1.253,"climb":-0.483,"eps":1.43,"epc":181.24}
{"class":"TPV","device":"/dev/ttyAMA0","mode":3,"time":"2018-10-01T23:33:47.000Z","ept":0.005,"lat":36.622335772,"lon":127.347779738,"alt":37.062,"epx":27.413,"epy":85.003,"epv":90.620,"track":175.2697,"speed":1.342,"climb":-0.497,"eps":1.45,"epc":181.24}
{"class":"SKY","device":"/dev/ttyAMA0","xdop":1.83,"ydop":5.67,"vdop":3.94,"tdop":4.17,"hdop":3.81,"gdop":6.89,"pdop":5.48,"satellites":[{"PRN":1,"el":50,"az":40,"ss":22,"used":true},{"PRN":3,"el":54,"az":123,"ss":26,"used":false},{"PRN":6,"el":16,"az":243,"ss":8,"used":false},{"PRN":8,"el":-91,"az":0,"ss":20,"used":false},{"PRN":17,"el":43,"az":310,"ss":29,"used":true},{"PRN":19,"el":17,"az":294,"ss":13,"used":true},{"PRN":28,"el":77,"az":265,"ss":17,"used":true},{"PRN":67,"el":14,"az":32,"ss":16,"used":false},{"PRN":69,"el":20,"az":142,"ss":21,"used":false},{"PRN":75,"el":10,"az":334,"ss":20,"used":true},{"PRN":83,"el":38,"az":42,"ss":22,"used":false},{"PRN":84,"el":47,"az":318,"ss":14,"used":false}]}
{"class":"TPV","device":"/dev/ttyAMA0","mode":3,"time":"2018-10-01T23:33:48.000Z","ept":0.005,"lat":36.622318059,"lon":127.347772718,"alt":35.599,"epx":27.413,"epy":85.003,"epv":90.620,"track":189.1971,"speed":1.372,"climb":-0.525,"eps":1.47,"epc":181.24}
{"class":"TPV","device":"/dev/ttyAMA0","mode":3,"time":"2018-10-01T23:33:49.000Z","ept":0.005,"lat":36.622302136,"lon":127.347789470,"alt":34.222,"epx":27.413,"epy":85.003,"epv":68.080,"track":168.2332,"speed":1.512,"climb":-0.556,"eps":1.39,"epc":158.70}
{"class":"TPV","device":"/dev/ttyAMA0","mode":3,"time":"2018-10-01T23:33:50.000Z","ept":0.005,"lat":36.622295723,"lon":127.347778744,"alt":33.000,"epx":27.413,"epy":85.003,"epv":68.080,"track":174.9442,"speed":1.826,"climb":-0.587,"eps":1.39,"epc":136.16}
{"class":"TPV","device":"/dev/ttyAMA0","mode":3,"time":"2018-10-01T23:33:51.000Z","ept":0.005,"lat":36.622283687,"lon":127.347777320,"alt":32.215,"epx":27.413,"epy":85.003,"epv":68.080,"track":178.1782,"speed":1.738,"climb":-0.580,"eps":1.37,"epc":136.16}
{"class":"TPV","device":"/dev/ttyAMA0","mode":3,"time":"2018-10-01T23:33:52.000Z","ept":0.005,"lat":36.622273189,"lon":127.347774090,"alt":31.185,"epx":27.413,"epy":85.003,"epv":68.080,"track":184.2806,"speed":1.665,"climb":-0.600,"eps":1.40,"epc":136.16}
{"class":"TPV","device":"/dev/ttyAMA0","mode":3,"time":"2018-10-01T23:33:53.000Z","ept":0.005,"lat":36.622253359,"lon":127.347777949,"alt":29.971,"epx":27.413,"epy":85.003,"epv":68.080,"track":177.8670,"speed":1.568,"climb":-0.624,"eps":1.44,"epc":136.16}
{"class":"TPV","device":"/dev/ttyAMA0","mode":3,"time":"2018-10-01T23:33:54.000Z","ept":0.005,"lat":36.622241030,"lon":127.347777500,"alt":28.979,"epx":27.413,"epy":85.003,"epv":68.080,"track":179.4675,"speed":1.554,"climb":-0.624,"eps":1.45,"epc":136.16}
{"class":"TPV","device":"/dev/ttyAMA0","mode":3,"time":"2018-10-01T23:33:55.000Z","ept":0.005,"lat":36.622241170,"lon":127.347779242,"alt":28.120,"epx":27.413,"epy":85.003,"epv":68.080,"track":175.2843,"speed":1.265,"climb":-0.634,"eps":1.45,"epc":136.16}
{"class":"TPV","device":"/dev/ttyAMA0","mode":3,"time":"2018-10-01T23:33:56.000Z","ept":0.005,"lat":36.622250630,"lon":127.347782133,"alt":27.328,"epx":27.413,"epy":85.003,"epv":68.080,"track":168.4367,"speed":0.830,"climb":-0.650,"eps":1.36,"epc":136.16}
{"class":"TPV","device":"/dev/ttyAMA0","mode":3,"time":"2018-10-01T23:33:57.000Z","ept":0.005,"lat":36.622247722,"lon":127.347788756,"alt":27.024,"epx":27.413,"epy":85.003,"epv":68.080,"track":149.1393,"speed":0.874,"climb":-0.633,"eps":1.31,"epc":136.16}
{"class":"SKY","device":"/dev/ttyAMA0","xdop":1.83,"ydop":5.67,"vdop":2.96,"tdop":3.24,"hdop":3.02,"gdop":5.33,"pdop":4.23,"satellites":[{"PRN":1,"el":50,"az":40,"ss":15,"used":true},{"PRN":3,"el":54,"az":123,"ss":19,"used":false},{"PRN":8,"el":-91,"az":0,"ss":14,"used":false},{"PRN":17,"el":43,"az":310,"ss":26,"used":true},{"PRN":19,"el":17,"az":294,"ss":14,"used":true},{"PRN":28,"el":77,"az":265,"ss":10,"used":true},{"PRN":67,"el":14,"az":32,"ss":15,"used":false},{"PRN":69,"el":20,"az":142,"ss":16,"used":false},{"PRN":74,"el":45,"az":287,"ss":28,"used":false},{"PRN":75,"el":10,"az":334,"ss":14,"used":true},{"PRN":83,"el":38,"az":42,"ss":8,"used":false}]}
{"class":"TPV","device":"/dev/ttyAMA0","mode":3,"time":"2018-10-01T23:33:58.000Z","ept":0.005,"lat":36.622242965,"lon":127.347787554,"alt":26.561,"epx":27.413,"epy":85.003,"epv":90.620,"track":162.1609,"speed":0.637,"climb":-0.626,"eps":1.27,"epc":158.70}
{"class":"TPV","device":"/dev/ttyAMA0","mode":3,"time":"2018-10-01T23:33:59.000Z","ept":0.005,"lat":36.622251266,"lon":127.347794712,"alt":25.707,"epx":27.413,"epy":85.003,"epv":90.620,"track":139.5318,"speed":0.478,"climb":-0.634,"eps":1.06,"epc":181.24}
{"class":"TPV","device":"/dev/ttyAMA0","mode":3,"time":"2018-10-01T23:34:00.000Z","ept":0.005,"lat":36.622243548,"lon":127.347799053,"alt":25.032,"epx":27.413,"epy":85.003,"epv":90.620,"track":142.2791,"speed":0.605,"climb":-0.631,"eps":1.19,"epc":181.24}
{"class":"TPV","device":"/dev/ttyAMA0","mode":3,"time":"2018-10-01T23:34:01.000Z","ept":0.005,"lat":36.622230707,"lon":127.347804308,"alt":23.965,"epx":27.413,"epy":85.003,"epv":98.670,"track":147.9654,"speed":0.745,"climb":-0.642,"eps":1.31,"epc":189.29}
{"class":"TPV","device":"/dev/ttyAMA0","mode":3,"time":"2018-10-01T23:34:02.000Z","ept":0.005,"lat":36.622229317,"lon":127.347812872,"alt":22.949,"epx":27.413,"epy":85.003,"epv":68.080,"track":140.1462,"speed":0.705,"climb":-0.647,"eps":1.24,"epc":166.75}
{"class":"TPV","device":"/dev/ttyAMA0","mode":3,"time":"2018-10-01T23:34:03.000Z","ept":0.005,"lat":36.622227888,"lon":127.347815566,"alt":23.280,"epx":27.413,"epy":85.003,"epv":68.080,"track":148.4971,"speed":0.733,"climb":-0.618,"eps":1.24,"epc":136.16}
{"class":"TPV","device":"/dev/ttyAMA0","mode":3,"time":"2018-10-01T23:34:04.000Z","ept":0.005,"lat":36.622218119,"lon":127.347814654,"alt":22.710,"epx":27.413,"epy":85.003,"epv":68.080,"track":158.1166,"speed":0.663,"climb":-0.614,"eps":1.21,"epc":136.16}
{"class":"TPV","device":"/dev/ttyAMA0","mode":3,"time":"2018-10-01T23:34:05.000Z","ept":0.005,"lat":36.622216522,"lon":127.347815683,"alt":21.976,"epx":27.413,"epy":85.003,"epv":68.080,"track":160.9496,"speed":0.472,"climb":-0.624,"eps":1.08,"epc":136.16}
{"class":"TPV","device":"/dev/ttyAMA0","mode":3,"time":"2018-10-01T23:34:06.000Z","ept":0.005,"lat":36.622219400,"lon":127.347815963,"alt":22.049,"epx":27.413,"epy":85.003,"epv":68.080,"track":169.0960,"speed":0.443,"climb":-0.604,"eps":1.06,"epc":136.16}
{"class":"TPV","device":"/dev/ttyAMA0","mode":3,"time":"2018-10-01T23:34:07.000Z","ept":0.005,"lat":36.622209512,"lon":127.347803734,"alt":21.212,"epx":27.413,"epy":85.003,"epv":68.080,"track":190.5119,"speed":0.575,"climb":-0.598,"eps":1.17,"epc":136.16}
{"class":"SKY","device":"/dev/ttyAMA0","xdop":1.83,"ydop":5.67,"vdop":2.96,"tdop":3.24,"hdop":3.02,"gdop":5.33,"pdop":4.23,"satellites":[{"PRN":1,"el":50,"az":40,"ss":22,"used":true},{"PRN":3,"el":54,"az":123,"ss":22,"used":false},{"PRN":17,"el":43,"az":310,"ss":28,"used":true},{"PRN":19,"el":17,"az":294,"ss":17,"used":true},{"PRN":28,"el":77,"az":265,"ss":18,"used":true},{"PRN":69,"el":20,"az":142,"ss":22,"used":false},{"PRN":73,"el":37,"az":216,"ss":22,"used":false},{"PRN":74,"el":45,"az":286,"ss":21,"used":false},{"PRN":75,"el":10,"az":334,"ss":25,"used":true},{"PRN":83,"el":38,"az":43,"ss":14,"used":false},{"PRN":84,"el":47,"az":318,"ss":16,"used":true}]}
{"class":"TPV","device":"/dev/ttyAMA0","mode":3,"time":"2018-10-01T23:34:08.000Z","ept":0.005,"lat":36.622193885,"lon":127.347777003,"alt":20.377,"epx":27.413,"epy":85.003,"epv":68.080,"track":211.4038,"speed":0.971,"climb":-0.611,"eps":1.33,"epc":136.16}
{"class":"TPV","device":"/dev/ttyAMA0","mode":3,"time":"2018-10-01T23:34:09.000Z","ept":0.005,"lat":36.622172032,"lon":127.347787326,"alt":19.265,"epx":27.413,"epy":85.003,"epv":68.080,"track":203.2605,"speed":0.917,"climb":-0.610,"eps":1.31,"epc":136.16}
{"class":"TPV","device":"/dev/ttyAMA0","mode":3,"time":"2018-10-01T23:34:10.000Z","ept":0.005,"lat":36.622156936,"lon":127.347785105,"alt":17.831,"epx":27.413,"epy":85.003,"epv":68.310,"track":193.2290,"speed":1.061,"climb":-0.638,"eps":1.33,"epc":136.39}
{"class":"TPV","device":"/dev/ttyAMA0","mode":3,"time":"2018-10-01T23:34:11.000Z","ept":0.005,"lat":36.622152246,"lon":127.347787927,"alt":17.072,"epx":27.413,"epy":85.003,"epv":68.310,"track":184.4008,"speed":1.028,"climb":-0.633,"eps":1.28,"epc":136.62}
{"class":"TPV","device":"/dev/ttyAMA0","mode":3,"time":"2018-10-01T23:34:12.000Z","ept":0.005,"lat":36.622141750,"lon":127.347789857,"alt":17.013,"epx":27.413,"epy":85.003,"epv":68.310,"track":180.7721,"speed":1.164,"climb":-0.613,"eps":1.28,"epc":136.62}
{"class":"TPV","device":"/dev/ttyAMA0","mode":3,"time":"2018-10-01T23:34:13.000Z","ept":0.005,"lat":36.622143038,"lon":127.347794022,"alt":16.737,"epx":27.413,"epy":85.003,"epv":68.310,"track":177.2851,"speed":0.919,"climb":-0.609,"eps":1.21,"epc":136.62}
{"class":"TPV","device":"/dev/ttyAMA0","mode":3,"time":"2018-10-01T23:34:14.000Z","ept":0.005,"lat":36.622141922,"lon":127.347785179,"alt":16.787,"epx":27.413,"epy":85.003,"epv":68.310,"track":186.4991,"speed":0.998,"climb":-0.594,"eps":1.26,"epc":136.62}
{"class":"TPV","device":"/dev/ttyAMA0","mode":3,"time":"2018-10-01T23:34:15.000Z","ept":0.005,"lat":36.622151531,"lon":127.347787689,"alt":17.213,"epx":27.413,"epy":85.003,"epv":68.310,"track":174.2130,"speed":0.830,"climb":-0.565,"eps":1.17,"epc":136.62}
{"class":"TPV","device":"/dev/ttyAMA0","mode":3,"time":"2018-10-01T23:34:16.000Z","ept":0.005,"lat":36.622145383,"lon":127.347796852,"alt":17.359,"epx":27.413,"epy":85.003,"epv":68.310,"track":164.8538,"speed":0.841,"climb":-0.551,"eps":1.11,"epc":136.62}
{"class":"TPV","device":"/dev/ttyAMA0","mode":3,"time":"2018-10-01T23:34:17.000Z","ept":0.005,"lat":36.622132135,"lon":127.347800250,"alt":16.571,"epx":27.413,"epy":85.003,"epv":68.310,"track":171.1557,"speed":0.918,"climb":-0.556,"eps":1.16,"epc":136.62}
{"class":"SKY","device":"/dev/ttyAMA0","xdop":1.83,"ydop":5.67,"vdop":2.97,"tdop":3.23,"hdop":3.01,"gdop":5.32,"pdop":4.23,"satellites":[{"PRN":1,"el":50,"az":41,"ss":21,"used":true},{"PRN":3,"el":55,"az":123,"ss":22,"used":false},{"PRN":13,"el":-91,"az":0,"ss":7,"used":false},{"PRN":17,"el":43,"az":310,"ss":26,"used":true},{"PRN":19,"el":17,"az":294,"ss":16,"used":true},{"PRN":28,"el":77,"az":265,"ss":20,"used":true},{"PRN":69,"el":20,"az":142,"ss":25,"used":false},{"PRN":73,"el":37,"az":216,"ss":21,"used":false},{"PRN":74,"el":45,"az":286,"ss":29,"used":false},{"PRN":75,"el":10,"az":334,"ss":23,"used":true},{"PRN":83,"el":38,"az":43,"ss":19,"used":false},{"PRN":84,"el":47,"az":318,"ss":15,"used":true}]}
{"class":"TPV","device":"/dev/ttyAMA0","mode":3,"time":"2018-10-01T23:34:18.000Z","ept":0.005,"lat":36.622131168,"lon":127.347798748,"alt":15.643,"epx":27.413,"epy":85.003,"epv":68.310,"track":181.4818,"speed":0.777,"climb":-0.565,"eps":1.16,"epc":136.62}
{"class":"TPV","device":"/dev/ttyAMA0","mode":3,"time":"2018-10-01T23:34:19.000Z","ept":0.005,"lat":36.622130811,"lon":127.347810348,"alt":15.378,"epx":27.413,"epy":85.003,"epv":68.310,"track":153.1242,"speed":0.836,"climb":-0.555,"eps":1.05,"epc":136.62}
{"class":"TPV","device":"/dev/ttyAMA0","mode":3,"time":"2018-10-01T23:34:20.000Z","ept":0.005,"lat":36.622134521,"lon":127.347811012,"alt":15.176,"epx":27.413,"epy":85.003,"epv":68.310,"track":150.8361,"speed":1.004,"climb":-0.547,"eps":1.08,"epc":136.62}
{"class":"TPV","device":"/dev/ttyAMA0","mode":3,"time":"2018-10-01T23:34:21.000Z","ept":0.005,"lat":36.622140194,"lon":127.347811372,"alt":15.016,"epx":27.413,"epy":85.003,"epv":68.310,"track":153.2792,"speed":0.959,"climb":-0.540,"eps":1.09,"epc":136.62}
{"class":"TPV","device":"/dev/ttyAMA0","mode":3,"time":"2018-10-01T23:34:22.000Z","ept":0.005,"lat":36.622132513,"lon":127.347817853,"alt":14.134,"epx":27.413,"epy":85.003,"epv":68.310,"track":156.3715,"speed":0.996,"climb":-0.549,"eps":1.11,"epc":136.62}
{"class":"TPV","device":"/dev/ttyAMA0","mode":3,"time":"2018-10-01T23:34:23.000Z","ept":0.005,"lat":36.622138930,"lon":127.347819700,"alt":13.880,"epx":27.413,"epy":85.003,"epv":68.310,"track":157.2995,"speed":0.819,"climb":-0.543,"eps":1.07,"epc":136.62}
{"class":"TPV","device":"/dev/ttyAMA0","mode":3,"time":"2018-10-01T23:34:24.000Z","ept":0.005,"lat":36.622137685,"lon":127.347825423,"alt":13.496,"epx":27.413,"epy":85.003,"epv":68.310,"track":157.6144,"speed":0.834,"climb":-0.538,"eps":1.08,"epc":136.62}
{"class":"TPV","device":"/dev/ttyAMA0","mode":3,"time":"2018-10-01T23:34:25.000Z","ept":0.005,"lat":36.622140921,"lon":127.347825044,"alt":13.449,"epx":27.413,"epy":85.003,"epv":90.850,"track":166.7166,"speed":0.799,"climb":-0.529,"eps":1.12,"epc":159.16}
{"class":"TPV","device":"/dev/ttyAMA0","mode":3,"time":"2018-10-01T23:34:26.000Z","ept":0.005,"lat":36.622146545,"lon":127.347829010,"alt":13.498,"epx":27.413,"epy":85.003,"epv":90.850,"track":161.6348,"speed":0.805,"climb":-0.531,"eps":1.08,"epc":181.70}
